,Unnamed: 0,BOROUGH,NEIGHBORHOOD,BUILDING CLASS CATEGORY,TAX CLASS AT PRESENT,BLOCK,LOT,EASE-MENT,BUILDING CLASS AT PRESENT,ADDRESS,APARTMENT NUMBER,ZIP CODE,RESIDENTIAL UNITS,COMMERCIAL UNITS,TOTAL UNITS,LAND SQUARE FEET,GROSS SQUARE FEET,YEAR BUILT,TAX CLASS AT TIME OF SALE,BUILDING CLASS AT TIME OF SALE,SALE PRICE,SALE DATE,LAT,LONG,LAT_LONG
4848,4852,1,HARLEM-CENTRAL,03 THREE FAMILY DWELLINGS                  ,1,1746,23, ,C0,59 EAST 119 STREET, ,10035,3,0,3,2086,3764,2002,1,C0, -  ,2017-02-03 00:00:00,40.801847,-73.942864,"(40.801847, -73.942864)"
4885,4889,1,HARLEM-CENTRAL,07 RENTALS - WALKUP APARTMENTS             ,2A,1749,5, ,C9,3 EAST 124 STREET, ,10035,4,0,4,2018,2994,1900,2,C9,1100000,2017-01-10 00:00:00,40.805635,-73.942178,"(40.805635, -73.942178)"
5535,5539,1,HARLEM-CENTRAL,17 CONDO COOPS                             ,2,1745,1002, ,R9,"1825 MADISON AVENUE, 6I", ,10035,0,0,0, -  , -  ,2004,2,R9,635000,2017-02-13 00:00:00,40.801553,-73.943517,"(40.801553, -73.943517)"
5564,5568,1,HARLEM-CENTRAL,21 OFFICE BUILDINGS                        ,4,1774,56, ,O5,132 EAST 126 STREET, ,10035,0,6,6,9091,58948,2008,4,O5, -  ,2017-02-03 00:00:00,40.805052,-73.937639,"(40.805052, -73.937639)"
5567,5571,1,HARLEM-CENTRAL,22 STORE BUILDINGS                         ,4,1750,1, ,K4,2023 5 AVENUE, ,10035,0,10,10,16986,58000,1940,4,K4,15453750,2017-02-15 00:00:00,40.806266,-73.942262,"(40.806266, -73.942262)"
5569,5573,1,HARLEM-CENTRAL,22 STORE BUILDINGS                         ,4,1774,17, ,K4,127 EAST 125 STREET, ,10035,0,3,3,13891,43630,2001,4,K4, -  ,2017-02-03 00:00:00,40.804851,-73.938973,"(40.804851, -73.938973)"
5609,5613,1,HARLEM-CENTRAL,40 SELECTED GOVERNMENTAL FACILITIES        ,4,1773,62, ,Y1,120 EAST 125 STREET, ,10035,0,1,1,2523,8500,1950,4,Y1,1,2017-01-04 00:00:00,40.804498,-73.938114,"(40.804498, -73.938114)"
5610,5614,1,HARLEM-CENTRAL,41 TAX CLASS 4 - OTHER                     ,4,1751,35, ,Z9,1844 PARK AVENUE, ,10035,0,0,0,1725, -  ,0,4,Z9, -  ,2017-01-27 00:00:00,40.805941,-73.938599,"(40.805941, -73.938599)"
5611,5615,1,HARLEM-CENTRAL,41 TAX CLASS 4 - OTHER                     ,4,1751,37, ,Z9,1848 PARK AVENUE, ,10035,0,0,0,1494, -  ,0,4,Z9, -  ,2017-01-27 00:00:00,40.80608,-73.938522,"(40.80608, -73.938522)"
5612,5616,1,HARLEM-CENTRAL,41 TAX CLASS 4 - OTHER                     ,4,1751,38, ,Z9,1852 PARK AVENUE, ,10035,0,0,0,1500, -  ,0,4,Z9, -  ,2017-01-27 00:00:00,40.806218,-73.938445,"(40.806218, -73.938445)"
5613,5617,1,HARLEM-CENTRAL,41 TAX CLASS 4 - OTHER                     ,4,1751,137, ,Z9,1850 PARK AVENUE, ,10035,0,0,0,1500, -  ,0,4,Z9, -  ,2017-01-27 00:00:00,40.806149,-73.938483,"(40.806149, -73.938483)"
5646,5650,1,HARLEM-EAST,01 ONE FAMILY DWELLINGS                    ,1,1628,71, ,A5,104 EAST 101ST STREET, ,10029,1,0,1,1607,1466,1890,1,A5, -  ,2017-02-04 00:00:00,40.78951,-73.949938,"(40.78951, -73.949938)"
5650,5654,1,HARLEM-EAST,02 TWO FAMILY DWELLINGS                    ,1,1807,133, ,B1,436 EAST 120 STREET, ,10035,2,0,2,1682,3000,1899,1,B1,424797,2017-02-27 00:00:00,40.797846,-73.932152,"(40.797846, -73.932152)"
5651,5655,1,HARLEM-EAST,03 THREE FAMILY DWELLINGS                  ,1,1623,44, ,C0,60 EAST 118TH STREET, ,10035,3,0,3,1926,3864,2002,1,C0,10,2017-02-10 00:00:00,40.800864,-73.943255,"(40.800864, -73.943255)"
5696,5700,1,HARLEM-EAST,07 RENTALS - WALKUP APARTMENTS             ,2B,1634,28, ,C4,159 EAST 106 STREET, ,10029,8,0,8,2851,7328,1910,2,C4,2245945,2017-02-21 00:00:00,40.792082,-73.945493,"(40.792082, -73.945493)"
5704,5708,1,HARLEM-EAST,07 RENTALS - WALKUP APARTMENTS             ,2A,1638,140, ,C3,184 EAST 111 STREET, ,10029,4,0,4,1766,2412,1890,2,C3,1469500,2017-02-08 00:00:00,40.794879,-73.942914,"(40.794879, -73.942914)"
5785,5789,1,HARLEM-EAST,07 RENTALS - WALKUP APARTMENTS             ,2A,1796,7, ,C4,311 EAST 119 STREET, ,10035,4,0,4,1892,4500,1900,2,C4, -  ,2017-01-28 00:00:00,40.798774,-73.935691,"(40.798774, -73.935691)"
5786,5790,1,HARLEM-EAST,07 RENTALS - WALKUP APARTMENTS             ,2A,1796,7, ,C4,311 EAST 119 STREET, ,10035,4,0,4,1892,4500,1900,2,C4,1825000,2017-01-27 00:00:00,40.798774,-73.935691,"(40.798774, -73.935691)"
5790,5794,1,HARLEM-EAST,07 RENTALS - WALKUP APARTMENTS             ,2B,1815,10, ,C4,515 EAST 118TH STREET, ,10035,8,0,8,1682,2394,1900,2,C4,1825000,2017-02-16 00:00:00,40.796106,-73.931257,"(40.796106, -73.931257)"
5793,5797,1,HARLEM-EAST,08 RENTALS - ELEVATOR APARTMENTS           ,2,1630,5, ,D3,109 EAST 102 STREET, ,10029,45,0,45,7570,30129,2003,2,D3,14700000,2017-01-19 00:00:00,40.790324,-73.949035,"(40.790324, -73.949035)"
5803,5807,1,HARLEM-EAST,09 COOPS - WALKUP APARTMENTS               ,2,1624,43, ,C6,"156 EAST 97TH   STREET, 1", ,10029,0,0,0, -  , -  ,1930,2,C6,200000,2017-02-06 00:00:00,40.786084,-73.949598,"(40.786084, -73.949598)"
5805,5809,1,HARLEM-EAST,09 COOPS - WALKUP APARTMENTS               ,2,1624,44, ,C6,"154 EAST 97TH STREET, 14", ,10029,0,0,0, -  , -  ,1930,2,C6,218000,2017-01-04 00:00:00,40.78612,-73.949684,"(40.78612, -73.949684)"
5828,5832,1,HARLEM-EAST,12 CONDOS - WALKUP APARTMENTS              ,2,1788,1115, ,R2,206 EAST 124 STREET,5B,10035,1,0,1, -  , -  ,1900,2,R2,497900,2017-01-24 00:00:00,40.802687,-73.935765,"(40.802687, -73.935765)"
5830,5834,1,HARLEM-EAST,13 CONDOS - ELEVATOR APARTMENTS            ,2,1616,1006, ,R4,77 EAST 110 STREET,3B,10029,1,0,1, -  , -  ,2013,2,R4,173394,2017-02-13 00:00:00,40.795804,-73.946495,"(40.795804, -73.946495)"
5832,5836,1,HARLEM-EAST,13 CONDOS - ELEVATOR APARTMENTS            ,2,1628,1204, ,R4,1810 3 AVENUE,2A,10029,1,0,1, -  , -  ,2005,2,R4,595000,2017-02-28 00:00:00,40.78821,-73.94736,"(40.78821, -73.94736)"
5836,5840,1,HARLEM-EAST,13 CONDOS - ELEVATOR APARTMENTS            ,2,1628,1209, ,R4,194 EAST 101 STREET,2B,10029,1,0,1, -  , -  ,2005,2,R4,710000,2017-01-31 00:00:00,40.788449,-73.947436,"(40.788449, -73.947436)"
5851,5855,1,HARLEM-EAST,13 CONDOS - ELEVATOR APARTMENTS            ,2,1628,1249, ,R4,194 EAST 101 STREET,7B,10029,1,0,1, -  , -  ,2005,2,R4,755000,2017-01-06 00:00:00,40.788449,-73.947436,"(40.788449, -73.947436)"
5853,5857,1,HARLEM-EAST,13 CONDOS - ELEVATOR APARTMENTS            ,2,1628,1253, ,R4,1810 3 AVENUE,8B,10029,1,0,1, -  , -  ,2005,2,R4,585292,2017-01-17 00:00:00,40.78821,-73.94736,"(40.78821, -73.94736)"
5854,5858,1,HARLEM-EAST,13 CONDOS - ELEVATOR APARTMENTS            ,2,1628,1257, ,R4,194 EAST 101 STREET,8B,10029,1,0,1, -  , -  ,2005,2,R4,790000,2017-02-07 00:00:00,40.788449,-73.947436,"(40.788449, -73.947436)"
5855,5859,1,HARLEM-EAST,13 CONDOS - ELEVATOR APARTMENTS            ,2,1628,1259, ,R4,194 EAST 101 STREET,8D,10029,1,0,1, -  , -  ,2005,2,R4,792163,2017-02-15 00:00:00,40.788449,-73.947436,"(40.788449, -73.947436)"
5864,5868,1,HARLEM-EAST,13 CONDOS - ELEVATOR APARTMENTS            ,2,1628,1273, ,R4,1810 3 AVENUE,11B,10029,1,0,1, -  , -  ,2005,2,R4,605000,2017-02-08 00:00:00,40.78821,-73.94736,"(40.78821, -73.94736)"
5867,5871,1,HARLEM-EAST,13 CONDOS - ELEVATOR APARTMENTS            ,2,1629,1135, ,R4,1595 LEXINGTON AVENUE,4G,10029,1,0,1, -  , -  ,2007,2,R4,638000,2017-01-25 00:00:00,40.789192,-73.948331,"(40.789192, -73.948331)"
5873,5877,1,HARLEM-EAST,13 CONDOS - ELEVATOR APARTMENTS            ,2,1631,1035, ,R4,1635 LEXINGTON AVENUE,7C,10029,1,0,1, -  , -  ,2010,2,R4,801362,2017-02-10 00:00:00,40.790594,-73.947215,"(40.790594, -73.947215)"
5878,5882,1,HARLEM-EAST,13 CONDOS - ELEVATOR APARTMENTS            ,2,1638,1061, ,R4,161 EAST 110 STREET,7E,10029,1,0,1, -  , -  ,2006,2,R4, -  ,2017-01-19 00:00:00,40.794705,-73.943607,"(40.794705, -73.943607)"
5911,5915,1,HARLEM-EAST,14 RENTALS - 4-10 UNIT                     ,2A,1616,38, ,S3,94 EAST 111 STREET, ,10029,3,1,4,1615,2880,1910,2,S3, -  ,2017-01-31 00:00:00,40.796178,-73.945986,"(40.796178, -73.945986)"
5942,5946,1,HARLEM-EAST,17 CONDO COOPS                             ,2,1646,1002, ,R9,"215 EAST 96TH STREET, 39H", ,10029,0,0,0, -  , -  ,1987,2,R9,1255000,2017-02-15 00:00:00,40.785036,-73.948381,"(40.785036, -73.948381)"
5948,5952,1,HARLEM-EAST,17 CONDO COOPS                             ,2,1646,1103, ,R9,"215 EAST 96TH   STREET, CONDP", ,10128,0,0,0, -  , -  ,2005,2,R9,1450000,2017-01-05 00:00:00,40.785036,-73.948381,"(40.785036, -73.948381)"
5949,5953,1,HARLEM-EAST,17 CONDO COOPS                             ,2,1646,1103, ,R9,"215 EAST 96TH   STREET, CONDP", ,10128,0,0,0, -  , -  ,2005,2,R9,957500,2017-01-31 00:00:00,40.785036,-73.948381,"(40.785036, -73.948381)"
5950,5954,1,HARLEM-EAST,17 CONDO COOPS                             ,2,1646,1103, ,R9,"215 EAST 96TH   STREET, CONDP", ,10128,0,0,0, -  , -  ,2005,2,R9,870000,2017-01-19 00:00:00,40.785036,-73.948381,"(40.785036, -73.948381)"
5962,5966,1,HARLEM-EAST,22 STORE BUILDINGS                         ,4,1786,28, ,K1,2375 2ND AVENUE, ,10035,0,2,2,3750,3700,1997,4,K1, -  ,2017-01-19 00:00:00,40.800763,-73.935311,"(40.800763, -73.935311)"
5970,5974,1,HARLEM-EAST,31 COMMERCIAL VACANT LAND                  ,4,1616,36, ,V1,1516 PARK AVENUE, ,10029,0,0,0,5450, -  ,0,4,V1,10250000,2017-01-31 00:00:00,40.795616,-73.946041,"(40.795616, -73.946041)"
5984,5988,1,HARLEM-EAST,37 RELIGIOUS FACILITIES                    ,4,1620,40, ,M1,1713 MADISON AVENUE, ,10029,0,2,2,17163,12368,1968,4,M1,6925000,2017-02-16 00:00:00,40.798208,-73.946372,"(40.798208, -73.946372)"
5985,5989,1,HARLEM-EAST,42 CONDO CULTURAL/MEDICAL/EDUCATIONAL/ETC  ,4,1652,1001, ,RA,222 EAST 104 STREET,SCH,10029,0,0,1, -  , -  ,2013,4,RA, -  ,2017-02-10 00:00:00,40.78949,-73.944204,"(40.78949, -73.944204)"
5987,5991,1,HARLEM-EAST,43 CONDO OFFICE BUILDINGS                  ,4,1652,1003, ,RB,222 EAST 104 STREET,HRBI,10029,0,0,1, -  , -  ,2013,4,RB, -  ,2017-02-10 00:00:00,40.78949,-73.944204,"(40.78949, -73.944204)"
11684,11688,1,UPPER EAST SIDE (59-79),01 ONE FAMILY DWELLINGS                    ,1,1380,143, ,A7,58 EAST 66TH STREET, ,10065,1,0,1,2008,9600,1922,1,A7,24175000,2017-02-10 00:00:00,40.767519,-73.967404,"(40.767519, -73.967404)"
11685,11689,1,UPPER EAST SIDE (59-79),01 ONE FAMILY DWELLINGS                    ,1,1382,8, ,A4,7 EAST 67TH   STREET, ,10065,1,0,1,2510,7786,1910,1,A4, -  ,2017-02-21 00:00:00,40.769037,-73.968561,"(40.769037, -73.968561)"
11687,11691,1,UPPER EAST SIDE (59-79),01 ONE FAMILY DWELLINGS                    ,1,1387,65, ,A4,12 EAST 73RD STREET, ,10021,1,0,1,2299,6230,1899,1,A4,41000000,2017-01-31 00:00:00,40.772732,-73.965831,"(40.772732, -73.965831)"
11689,11693,1,UPPER EAST SIDE (59-79),01 ONE FAMILY DWELLINGS                    ,1,1389,133, ,A4,57 EAST 74TH   STREET, ,10021,1,0,1,1839,6282,1901,1,A4,200000,2017-01-20 00:00:00,40.772698,-73.963238,"(40.772698, -73.963238)"
11692,11696,1,UPPER EAST SIDE (59-79),01 ONE FAMILY DWELLINGS                    ,1,1398,64, ,A4,124 EAST 64TH STREET, ,10065,1,0,1,2000,4500,1915,1,A4,14000000,2017-01-24 00:00:00,40.76555,-73.966661,"(40.76555, -73.966661)"
11700,11704,1,UPPER EAST SIDE (59-79),01 ONE FAMILY DWELLINGS                    ,1,1408,50, ,S0,152 EAST 74TH   STREET, ,10021,1,2,3,1278,4836,1910,1,S0, -  ,2017-01-05 00:00:00,40.7715,-73.960917,"(40.7715, -73.960917)"
11705,11709,1,UPPER EAST SIDE (59-79),01 ONE FAMILY DWELLINGS                    ,1,1417,31, ,A4,232 EAST 63RD   STREET, ,10065,1,0,1,2510,10000,1925,1,A4,18500000,2017-02-27 00:00:00,40.763318,-73.963265,"(40.763318, -73.963265)"
11713,11717,1,UPPER EAST SIDE (59-79),02 TWO FAMILY DWELLINGS                    ,1,1405,60, ,B1,132 EAST 71ST   STREET, ,10021,2,0,2,2209,4842,1920,1,B1,18000000,2017-01-23 00:00:00,40.769829,-73.963181,"(40.769829, -73.963181)"
11716,11720,1,UPPER EAST SIDE (59-79),02 TWO FAMILY DWELLINGS                    ,1,1415,39, ,B3,220 EAST 61ST STREET, ,10065,2,0,2,2008,4000,1910,1,B3,7050000,2017-02-24 00:00:00,40.762331,-73.96484,"(40.762331, -73.96484)"
11721,11725,1,UPPER EAST SIDE (59-79),03 THREE FAMILY DWELLINGS                  ,1,1416,132, ,C0,236 EAST 62ND   STREET, ,10065,3,0,3,2008,3600,1905,1,C0,6982500,2017-01-20 00:00:00,40.762737,-73.963844,"(40.762737, -73.963844)"
11722,11726,1,UPPER EAST SIDE (59-79),03 THREE FAMILY DWELLINGS                  ,1,1416,132, ,C0,236 EAST 62ND   STREET, ,10065,3,0,3,2008,3600,1905,1,C0, -  ,2017-01-20 00:00:00,40.762737,-73.963844,"(40.762737, -73.963844)"
11725,11729,1,UPPER EAST SIDE (59-79),07 RENTALS - WALKUP APARTMENTS             ,2A,1428,32, ,C4,240 EAST 74TH STREET, ,10021,5,0,5,1703,4600,1920,2,C4,5850000,2017-01-27 00:00:00,40.77035,-73.958233,"(40.77035, -73.958233)"
11729,11733,1,UPPER EAST SIDE (59-79),07 RENTALS - WALKUP APARTMENTS             ,2B,1429,3, ,C7,1297 THIRD AVENUE, ,10021,8,1,9,2200,6100,1915,2,C7,26000000,2017-01-06 00:00:00,40.768823,-73.960257,"(40.768823, -73.960257)"
11730,11734,1,UPPER EAST SIDE (59-79),07 RENTALS - WALKUP APARTMENTS             ,2B,1429,4, ,C7,1299 THIRD AVENUE, ,10021,8,1,9,2200,5300,1915,2,C7, -  ,2017-01-06 00:00:00,40.768823,-73.960257,"(40.768823, -73.960257)"
11759,11763,1,UPPER EAST SIDE (59-79),08 RENTALS - ELEVATOR APARTMENTS           ,2,1431,38, ,D9,216 EAST 77TH   STREET, ,10075,20,0,20,2554,9945,1910,2,D9, -  ,2017-01-30 00:00:00,40.772459,-73.957313,"(40.772459, -73.957313)"
11765,11769,1,UPPER EAST SIDE (59-79),09 COOPS - WALKUP APARTMENTS               ,2,1431,1, ,C6,1329 3 AVENUE, ,10075,0,0,0, -  , -  ,1910,2,C6,45000000,2017-01-26 00:00:00,40.772354,-73.958475,"(40.772354, -73.958475)"
11773,11777,1,UPPER EAST SIDE (59-79),09 COOPS - WALKUP APARTMENTS               ,2,1447,46, ,C6,"308 EAST 73RD STREET, 2B", ,10021,0,0,0, -  , -  ,1910,2,C6,507500,2017-01-27 00:00:00,40.769116,-73.957272,"(40.769116, -73.957272)"
11783,11787,1,UPPER EAST SIDE (59-79),09 COOPS - WALKUP APARTMENTS               ,2C,1460,32, ,C6,"436 EAST 66TH ST, 5W", ,10065,0,0,0, -  , -  ,1910,2,C6,400000,2017-02-23 00:00:00,40.763219,-73.957194,"(40.763219, -73.957194)"
11789,11793,1,UPPER EAST SIDE (59-79),09 COOPS - WALKUP APARTMENTS               ,2,1473,14, ,C6,"421 EAST 78TH   STREET, 1B", ,10075,0,0,0, -  , -  ,1910,2,C6,310000,2017-02-22 00:00:00,40.771235,-73.95192,"(40.771235, -73.95192)"
11793,11797,1,UPPER EAST SIDE (59-79),09 COOPS - WALKUP APARTMENTS               ,2,1473,20, ,C6,"445 E. 78TH STREET, 5A", ,10075,0,0,0, -  , -  ,1910,2,C6,340000,2017-02-24 00:00:00,40.771034,-73.951447,"(40.771034, -73.951447)"
11794,11798,1,UPPER EAST SIDE (59-79),09 COOPS - WALKUP APARTMENTS               ,2,1473,20, ,C6,"445 E 78TH STREET, 4A", ,10075,0,0,0, -  , -  ,1910,2,C6,340000,2017-02-24 00:00:00,40.771034,-73.951447,"(40.771034, -73.951447)"
11795,11799,1,UPPER EAST SIDE (59-79),09 COOPS - WALKUP APARTMENTS               ,2,1473,20, ,C6,"445 E. 78TH STREET, 4C", ,10075,0,0,0, -  , -  ,1910,2,C6,350000,2017-02-24 00:00:00,40.771034,-73.951447,"(40.771034, -73.951447)"
11796,11800,1,UPPER EAST SIDE (59-79),09 COOPS - WALKUP APARTMENTS               ,2,1473,20, ,C6,"445 E. 78TH STREET, 3C", ,10075,0,0,0, -  , -  ,1910,2,C6,350000,2017-02-24 00:00:00,40.771034,-73.951447,"(40.771034, -73.951447)"
11797,11801,1,UPPER EAST SIDE (59-79),09 COOPS - WALKUP APARTMENTS               ,2,1473,20, ,C6,"445 E. 78TH STREET, 3A", ,10075,0,0,0, -  , -  ,1910,2,C6,325000,2017-02-24 00:00:00,40.771034,-73.951447,"(40.771034, -73.951447)"
11798,11802,1,UPPER EAST SIDE (59-79),09 COOPS - WALKUP APARTMENTS               ,2,1473,20, ,C6,"445 E. 78TH ST, 2C", ,10075,0,0,0, -  , -  ,1910,2,C6,350000,2017-02-24 00:00:00,40.771034,-73.951447,"(40.771034, -73.951447)"
11799,11803,1,UPPER EAST SIDE (59-79),09 COOPS - WALKUP APARTMENTS               ,2,1473,20, ,C6,"445 E. 78TH STREET, 3B", ,10075,0,0,0, -  , -  ,1910,2,C6,325000,2017-02-24 00:00:00,40.771034,-73.951447,"(40.771034, -73.951447)"
11800,11804,1,UPPER EAST SIDE (59-79),09 COOPS - WALKUP APARTMENTS               ,2,1473,20, ,C6,"445 E. 78TH ST, 2B", ,10075,0,0,0, -  , -  ,1910,2,C6,325000,2017-02-24 00:00:00,40.771034,-73.951447,"(40.771034, -73.951447)"
11801,11805,1,UPPER EAST SIDE (59-79),09 COOPS - WALKUP APARTMENTS               ,2,1473,20, ,C6,"445 E. 78TH STREET, 1C", ,10075,0,0,0, -  , -  ,1910,2,C6,500000,2017-02-24 00:00:00,40.771034,-73.951447,"(40.771034, -73.951447)"
11802,11806,1,UPPER EAST SIDE (59-79),09 COOPS - WALKUP APARTMENTS               ,2,1473,20, ,C6,"445 E. 78TH STREET, 5C", ,10075,0,0,0, -  , -  ,1910,2,C6,350000,2017-02-24 00:00:00,40.771034,-73.951447,"(40.771034, -73.951447)"
11803,11807,1,UPPER EAST SIDE (59-79),09 COOPS - WALKUP APARTMENTS               ,2,1473,20, ,C6,"445 E. 78TH STREET, 5B", ,10075,0,0,0, -  , -  ,1910,2,C6,325000,2017-02-24 00:00:00,40.771034,-73.951447,"(40.771034, -73.951447)"
11809,11813,1,UPPER EAST SIDE (59-79),09 COOPS - WALKUP APARTMENTS               ,2,1489,8, ,C6,"509 EAST 77TH STREET, 6P", ,10075,0,0,0, -  , -  ,1900,2,C6,395000,2017-01-05 00:00:00,40.769784,-73.95046,"(40.769784, -73.95046)"
11810,11814,1,UPPER EAST SIDE (59-79),09 COOPS - WALKUP APARTMENTS               ,2,1489,8, ,C6,"517 EAST 77TH STREET, 5L", ,10075,0,0,0, -  , -  ,1900,2,C6,440000,2017-02-01 00:00:00,40.769625,-73.950078,"(40.769625, -73.950078)"
11811,11815,1,UPPER EAST SIDE (59-79),09 COOPS - WALKUP APARTMENTS               ,2,1489,8, ,C6,"517 EAST 77TH   STREET, 3-J", ,10075,0,0,0, -  , -  ,1900,2,C6,603000,2017-02-14 00:00:00,40.769625,-73.950078,"(40.769625, -73.950078)"
11812,11816,1,UPPER EAST SIDE (59-79),09 COOPS - WALKUP APARTMENTS               ,2,1489,8, ,C6,"517 EAST 77TH STREET, 4M", ,10075,0,0,0, -  , -  ,1900,2,C6,350000,2017-02-07 00:00:00,40.769625,-73.950078,"(40.769625, -73.950078)"
11817,11821,1,UPPER EAST SIDE (59-79),09 COOPS - WALKUP APARTMENTS               ,2,1489,37, ,C6,"508 EAST 78TH STREET, 3M", ,10075,0,0,0, -  , -  ,1910,2,C6,350000,2017-02-08 00:00:00,40.770256,-73.950113,"(40.770256, -73.950113)"
11818,11822,1,UPPER EAST SIDE (59-79),09 COOPS - WALKUP APARTMENTS               ,2,1489,37, ,C6,"516 EAST 78TH   STREET, 1N", ,10075,0,0,0, -  , -  ,1910,2,C6,555000,2017-02-16 00:00:00,40.770097,-73.949741,"(40.770097, -73.949741)"
11834,11838,1,UPPER EAST SIDE (59-79),10 COOPS - ELEVATOR APARTMENTS             ,2,1376,15, ,D4,"21 EAST 61 STREET, S19", ,10065,0,0,0, -  , -  ,1951,2,D4,70980,2017-02-01 00:00:00,40.765098,-73.970843,"(40.765098, -73.970843)"
11842,11846,1,UPPER EAST SIDE (59-79),10 COOPS - ELEVATOR APARTMENTS             ,2,1377,29, ,D4,"45 EAST 62ND STREET, 6B", ,10065,0,0,0, -  , -  ,1915,2,D4,1775000,2017-02-22 00:00:00,40.765182,-73.969105,"(40.765182, -73.969105)"
11848,11852,1,UPPER EAST SIDE (59-79),10 COOPS - ELEVATOR APARTMENTS             ,2C,1378,65, ,D4,"12 EAST 64TH STREET, 5B", ,10065,0,0,0, -  , -  ,1920,2,D4,1465000,2017-02-01 00:00:00,40.766967,-73.970023,"(40.766967, -73.970023)"
11853,11857,1,UPPER EAST SIDE (59-79),10 COOPS - ELEVATOR APARTMENTS             ,2,1378,70, ,D4,"825 FIFTH AVENUE, SR-42", ,10065,0,0,0, -  , -  ,1927,2,D4,125000,2017-01-23 00:00:00,40.764584,-73.963013,"(40.764584, -73.963013)"
11854,11858,1,UPPER EAST SIDE (59-79),10 COOPS - ELEVATOR APARTMENTS             ,2,1378,70, ,D4,"825 FIFTH AVENUE, 10D", ,10065,0,0,0, -  , -  ,1927,2,D4,875000,2017-01-23 00:00:00,40.764584,-73.963013,"(40.764584, -73.963013)"
11857,11861,1,UPPER EAST SIDE (59-79),10 COOPS - ELEVATOR APARTMENTS             ,2,1378,70, ,D4,"825 5 AVENUE, 23", ,10065,0,0,0, -  , -  ,1927,2,D4,115000,2017-01-25 00:00:00,40.767117,-73.970726,"(40.767117, -73.970726)"
11859,11863,1,UPPER EAST SIDE (59-79),10 COOPS - ELEVATOR APARTMENTS             ,2,1379,1, ,D4,"834 5TH AVENUE, 12/14", ,10065,0,0,0, -  , -  ,1931,2,D4,900000,2017-02-22 00:00:00,40.767579,-73.970381,"(40.767579, -73.970381)"
11865,11869,1,UPPER EAST SIDE (59-79),10 COOPS - ELEVATOR APARTMENTS             ,2,1379,51, ,D4,"30 EAST 65TH STREET, 16C", ,10065,0,0,0, -  , -  ,1962,2,D4, -  ,2017-01-05 00:00:00,40.767159,-73.968483,"(40.767159, -73.968483)"
11869,11873,1,UPPER EAST SIDE (59-79),10 COOPS - ELEVATOR APARTMENTS             ,2,1381,1, ,D4,"1 EAST 66TH STREET, 15H", ,10065,0,0,0, -  , -  ,1949,2,D4,350000,2017-01-04 00:00:00,40.768524,-73.969269,"(40.768524, -73.969269)"
11871,11875,1,UPPER EAST SIDE (59-79),10 COOPS - ELEVATOR APARTMENTS             ,2,1381,1, ,D4,"851 FIFTH AVENUE, CENOF", ,10065,0,0,0, -  , -  ,1949,2,D4,850000,2017-01-19 00:00:00,40.764584,-73.963013,"(40.764584, -73.963013)"
11876,11880,1,UPPER EAST SIDE (59-79),10 COOPS - ELEVATOR APARTMENTS             ,2,1381,25, ,D4,"53 EAST 66TH STREET, 3D", ,10065,0,0,0, -  , -  ,1924,2,D4,2200000,2017-01-31 00:00:00,40.767811,-73.967595,"(40.767811, -73.967595)"
11881,11885,1,UPPER EAST SIDE (59-79),10 COOPS - ELEVATOR APARTMENTS             ,2,1381,69, ,D4,"2 EAST 67TH STREET, 3RD F", ,10065,0,0,0, -  , -  ,1928,2,D4,30000000,2017-02-10 00:00:00,40.76905,-73.969099,"(40.76905, -73.969099)"
11886,11890,1,UPPER EAST SIDE (59-79),10 COOPS - ELEVATOR APARTMENTS             ,2,1382,65, ,D4,"6 EAST 68TH STREET, 3", ,10065,0,0,0, -  , -  ,1920,2,D4,2725000,2017-01-17 00:00:00,40.769531,-73.968301,"(40.769531, -73.968301)"
11888,11892,1,UPPER EAST SIDE (59-79),10 COOPS - ELEVATOR APARTMENTS             ,2,1382,69, ,D4,"860 FIFTH AVENUE, 5/6-B", ,10065,0,0,0, -  , -  ,1950,2,D4,3425000,2017-02-27 00:00:00,40.764584,-73.963013,"(40.764584, -73.963013)"
11893,11897,1,UPPER EAST SIDE (59-79),10 COOPS - ELEVATOR APARTMENTS             ,2,1383,1, ,D4,"870 FIFTH AVENUE, 9F", ,10065,0,0,0, -  , -  ,1949,2,D4,2200000,2017-02-02 00:00:00,40.764584,-73.963013,"(40.764584, -73.963013)"
11910,11914,1,UPPER EAST SIDE (59-79),10 COOPS - ELEVATOR APARTMENTS             ,2,1384,37, ,D4,"710 PARK AVENUE, 8B", ,10021,0,0,0, -  , -  ,1948,2,D4,1275000,2017-02-07 00:00:00,40.769705,-73.965154,"(40.769705, -73.965154)"
11917,11921,1,UPPER EAST SIDE (59-79),10 COOPS - ELEVATOR APARTMENTS             ,2,1386,6, ,D4,"3 EAST 71ST STREET, 12E", ,10021,0,0,0, -  , -  ,1948,2,D4,1150000,2017-01-12 00:00:00,40.771564,-73.966774,"(40.771564, -73.966774)"
11918,11922,1,UPPER EAST SIDE (59-79),10 COOPS - ELEVATOR APARTMENTS             ,2,1386,6, ,D4,"3 EAST 71ST STREET, 2A", ,10021,0,0,0, -  , -  ,1948,2,D4,1750000,2017-02-06 00:00:00,40.771564,-73.966774,"(40.771564, -73.966774)"
11928,11932,1,UPPER EAST SIDE (59-79),10 COOPS - ELEVATOR APARTMENTS             ,2,1386,69, ,D4,"907 FIFTH AVENUE, 6AD", ,10021,0,0,0, -  , -  ,1915,2,D4, -  ,2017-02-17 00:00:00,40.768823,-73.960257,"(40.768823, -73.960257)"
11936,11940,1,UPPER EAST SIDE (59-79),10 COOPS - ELEVATOR APARTMENTS             ,2,1387,27, ,D4,"45 EAST 72ND  STREET, 8B", ,10021,0,0,0, -  , -  ,1959,2,D4,1400000,2017-01-13 00:00:00,40.771597,-73.964598,"(40.771597, -73.964598)"
11939,11943,1,UPPER EAST SIDE (59-79),10 COOPS - ELEVATOR APARTMENTS             ,2,1388,8, ,D4,"11 EAST 73RD STREET, 4D", ,10021,0,0,0, -  , -  ,1903,2,D4,1700000,2017-01-12 00:00:00,40.772856,-73.965605,"(40.772856, -73.965605)"
11947,11951,1,UPPER EAST SIDE (59-79),10 COOPS - ELEVATOR APARTMENTS             ,2,1389,1, ,D4,"930 FIFTH AVENUE, SR9", ,10021,0,0,0, -  , -  ,1940,2,D4,260000,2017-01-31 00:00:00,40.768823,-73.960257,"(40.768823, -73.960257)"
11948,11952,1,UPPER EAST SIDE (59-79),10 COOPS - ELEVATOR APARTMENTS             ,2,1389,1, ,D4,"930 FIFTH AVENUE, 17C", ,10021,0,0,0, -  , -  ,1940,2,D4, -  ,2017-02-13 00:00:00,40.768823,-73.960257,"(40.768823, -73.960257)"
11949,11953,1,UPPER EAST SIDE (59-79),10 COOPS - ELEVATOR APARTMENTS             ,2,1389,1, ,D4,"930 FIFTH AVENUE, SR9", ,10021,0,0,0, -  , -  ,1940,2,D4, -  ,2017-02-13 00:00:00,40.768823,-73.960257,"(40.768823, -73.960257)"
11950,11954,1,UPPER EAST SIDE (59-79),10 COOPS - ELEVATOR APARTMENTS             ,2,1389,1, ,D4,"930 FIFTH AVENUE, 3J", ,10021,0,0,0, -  , -  ,1940,2,D4, -  ,2017-02-13 00:00:00,40.768823,-73.960257,"(40.768823, -73.960257)"
11954,11958,1,UPPER EAST SIDE (59-79),10 COOPS - ELEVATOR APARTMENTS             ,2,1389,56, ,D4,"14 EAST 75TH STREET, 6D", ,10021,0,0,0, -  , -  ,1929,2,D4,2800000,2017-01-26 00:00:00,40.773805,-73.964433,"(40.773805, -73.964433)"
11960,11964,1,UPPER EAST SIDE (59-79),10 COOPS - ELEVATOR APARTMENTS             ,2,1390,23, ,D4,"35 EAST 75 STREET, 3E", ,10021,0,0,0, -  , -  ,1959,2,D4,3847500,2017-01-17 00:00:00,40.773673,-73.963606,"(40.773673, -73.963606)"
11965,11969,1,UPPER EAST SIDE (59-79),10 COOPS - ELEVATOR APARTMENTS             ,2,1391,29, ,D4,"55 EAST 76TH STREET, 15", ,10021,0,0,0, -  , -  ,1920,2,D4,1095000,2017-02-07 00:00:00,40.774113,-73.962683,"(40.774113, -73.962683)"
11968,11972,1,UPPER EAST SIDE (59-79),10 COOPS - ELEVATOR APARTMENTS             ,2,1391,31, ,D4,"65 EAST 76TH STREET, 5E", ,10021,0,0,0, -  , -  ,1949,2,D4,950000,2017-01-06 00:00:00,40.77403,-73.962442,"(40.77403, -73.962442)"
11973,11977,1,UPPER EAST SIDE (59-79),10 COOPS - ELEVATOR APARTMENTS             ,2,1391,34, ,D4,"840 PARK AVENUE, 3", ,10075,0,0,0, -  , -  ,1912,2,D4,225000,2017-01-20 00:00:00,40.773968,-73.962038,"(40.773968, -73.962038)"
11985,11989,1,UPPER EAST SIDE (59-79),10 COOPS - ELEVATOR APARTMENTS             ,2,1392,30, ,D4,"71 EAST 77TH STREET, 3A", ,10075,0,0,0, -  , -  ,1928,2,D4,1300000,2017-01-30 00:00:00,40.774684,-73.962044,"(40.774684, -73.962044)"
11999,12003,1,UPPER EAST SIDE (59-79),10 COOPS - ELEVATOR APARTMENTS             ,2,1393,52, ,D4,"50 EAST 79TH STREET, 16B", ,10075,0,0,0, -  , -  ,1958,2,D4,3750000,2017-01-06 00:00:00,40.776045,-73.961879,"(40.776045, -73.961879)"
12026,12030,1,UPPER EAST SIDE (59-79),10 COOPS - ELEVATOR APARTMENTS             ,2,1396,1, ,D4,"535 PARK AVENUE, 12AEL", ,10065,0,0,0, -  , -  ,1910,2,D4,45630,2017-01-30 00:00:00,40.76426,-73.968507,"(40.76426, -73.968507)"
12055,12059,1,UPPER EAST SIDE (59-79),10 COOPS - ELEVATOR APARTMENTS             ,2,1399,33, ,D4,"160 EAST 65TH STREET, 2F", ,10065,0,0,0, -  , -  ,1968,2,D4,918000,2017-01-03 00:00:00,40.765293,-73.96417,"(40.765293, -73.96417)"
12056,12060,1,UPPER EAST SIDE (59-79),10 COOPS - ELEVATOR APARTMENTS             ,2,1399,33, ,D4,"160 EAST 65TH STREET, 32F", ,10065,0,0,0, -  , -  ,1968,2,D4,1250000,2017-01-17 00:00:00,40.765293,-73.96417,"(40.765293, -73.96417)"
12086,12090,1,UPPER EAST SIDE (59-79),10 COOPS - ELEVATOR APARTMENTS             ,2,1403,33, ,D4,"150 EAST 69TH STREET, 17E", ,10065,0,0,0, -  , -  ,1959,2,D4, -  ,2017-01-06 00:00:00,40.767847,-73.962392,"(40.767847, -73.962392)"
12088,12092,1,UPPER EAST SIDE (59-79),10 COOPS - ELEVATOR APARTMENTS             ,2,1403,33, ,D4,"150 EAST 69, 3D", ,10065,0,0,0, -  , -  ,1959,2,D4,975000,2017-01-20 00:00:00,40.764584,-73.963013,"(40.764584, -73.963013)"
12098,12102,1,UPPER EAST SIDE (59-79),10 COOPS - ELEVATOR APARTMENTS             ,2,1404,14, ,D4,"129 EAST 69TH STREET, OFF1B", ,10021,0,0,0, -  , -  ,1916,2,D4,965000,2017-01-11 00:00:00,40.768667,-73.963796,"(40.768667, -73.963796)"
12104,12108,1,UPPER EAST SIDE (59-79),10 COOPS - ELEVATOR APARTMENTS             ,2,1405,40, ,D4,"176 EAST 71ST STREET, 6D", ,10021,0,0,0, -  , -  ,1962,2,D4, -  ,2017-01-24 00:00:00,40.769114,-73.961524,"(40.769114, -73.961524)"
12115,12119,1,UPPER EAST SIDE (59-79),10 COOPS - ELEVATOR APARTMENTS             ,2,1406,41, ,D4,"190 EAST 72ND STREET, 6C", ,10021,0,0,0, -  , -  ,1962,2,D4,1570000,2017-01-12 00:00:00,40.7698,-73.961195,"(40.7698, -73.961195)"
12120,12124,1,UPPER EAST SIDE (59-79),10 COOPS - ELEVATOR APARTMENTS             ,2,1406,61, ,D4,"132 EAST 72ND STREET, 9FL", ,10021,0,0,0, -  , -  ,1925,2,D4,3250000,2017-01-10 00:00:00,40.770446,-73.962673,"(40.770446, -73.962673)"
12125,12129,1,UPPER EAST SIDE (59-79),10 COOPS - ELEVATOR APARTMENTS             ,2,1407,16, ,D4,"125 EAST 72ND STREET, 3A", ,10021,0,0,0, -  , -  ,1917,2,D4,2326500,2017-01-20 00:00:00,40.770639,-73.962312,"(40.770639, -73.962312)"
12153,12157,1,UPPER EAST SIDE (59-79),10 COOPS - ELEVATOR APARTMENTS             ,2,1408,40, ,D4,"174 EAST 74TH STREET, 16C", ,10021,0,0,0, -  , -  ,1966,2,D4,2615000,2017-01-12 00:00:00,40.771109,-73.960004,"(40.771109, -73.960004)"
12167,12171,1,UPPER EAST SIDE (59-79),10 COOPS - ELEVATOR APARTMENTS             ,2,1409,40, ,D4,"196 EAST 75TH STREET, 7D", ,10021,0,0,0, -  , -  ,1961,2,D4,995000,2017-02-16 00:00:00,40.771741,-73.959545,"(40.771741, -73.959545)"
12177,12181,1,UPPER EAST SIDE (59-79),10 COOPS - ELEVATOR APARTMENTS             ,2,1409,61, ,D4,"120 EAST 75TH STREET, 8A", ,10021,0,0,0, -  , -  ,1923,2,D4,1500000,2017-02-23 00:00:00,40.772559,-73.961481,"(40.772559, -73.961481)"
12187,12191,1,UPPER EAST SIDE (59-79),10 COOPS - ELEVATOR APARTMENTS             ,2,1410,9, ,D4,"111 EAST 75TH STREET, 6C", ,10021,0,0,0, -  , -  ,1925,2,D4,570000,2017-01-17 00:00:00,40.772748,-73.961413,"(40.772748, -73.961413)"
12211,12215,1,UPPER EAST SIDE (59-79),10 COOPS - ELEVATOR APARTMENTS             ,2,1411,53, ,D4,"150 EAST 77TH STREET, 1E", ,10075,0,0,0, -  , -  ,1959,2,D4,1200000,2017-01-26 00:00:00,40.773461,-73.959692,"(40.773461, -73.959692)"
12221,12225,1,UPPER EAST SIDE (59-79),10 COOPS - ELEVATOR APARTMENTS             ,2,1413,4, ,D4,"891 PARK AVENUE, 10 FL", ,10075,0,0,0, -  , -  ,1931,2,D4,2750000,2017-02-01 00:00:00,40.775146,-73.960567,"(40.775146, -73.960567)"
12223,12227,1,UPPER EAST SIDE (59-79),10 COOPS - ELEVATOR APARTMENTS             ,2,1413,40, ,D4,"180 EAST 79TH STREET, 14E", ,10075,0,0,0, -  , -  ,1930,2,D4,2950000,2017-02-14 00:00:00,40.774472,-73.958148,"(40.774472, -73.958148)"
12236,12240,1,UPPER EAST SIDE (59-79),10 COOPS - ELEVATOR APARTMENTS             ,2,1417,1, ,D4,"201 EAST 62ND STREET, 4D", ,10065,0,0,0, -  , -  ,1963,2,D4,1820000,2017-01-09 00:00:00,40.763398,-73.964876,"(40.763398, -73.964876)"
12246,12250,1,UPPER EAST SIDE (59-79),10 COOPS - ELEVATOR APARTMENTS             ,2,1418,1, ,D4,"205 EAST 63RD STREET, 12D", ,10065,0,0,0, -  , -  ,1963,2,D4,1275000,2017-01-09 00:00:00,40.763936,-73.964173,"(40.763936, -73.964173)"
12247,12251,1,UPPER EAST SIDE (59-79),10 COOPS - ELEVATOR APARTMENTS             ,2,1418,1, ,D4,"205 EAST 63RD STREET, 20A", ,10065,0,0,0, -  , -  ,1963,2,D4,880000,2017-02-01 00:00:00,40.763936,-73.964173,"(40.763936, -73.964173)"
12248,12252,1,UPPER EAST SIDE (59-79),10 COOPS - ELEVATOR APARTMENTS             ,2,1418,1, ,D4,"205 EAST 63RD ST, 8F", ,10065,0,0,0, -  , -  ,1963,2,D4,435000,2017-01-18 00:00:00,40.763936,-73.964173,"(40.763936, -73.964173)"
12259,12263,1,UPPER EAST SIDE (59-79),10 COOPS - ELEVATOR APARTMENTS             ,2,1421,1, ,D4,"201 EAST 66TH STREET, 9P", ,10065,0,0,0, -  , -  ,1961,2,D4,795000,2017-01-05 00:00:00,40.765889,-73.96302,"(40.765889, -73.96302)"
12260,12264,1,UPPER EAST SIDE (59-79),10 COOPS - ELEVATOR APARTMENTS             ,2,1421,1, ,D4,"201 EAST 66TH STREET, 14A", ,10065,0,0,0, -  , -  ,1961,2,D4,1200000,2017-01-25 00:00:00,40.765889,-73.96302,"(40.765889, -73.96302)"
12261,12265,1,UPPER EAST SIDE (59-79),10 COOPS - ELEVATOR APARTMENTS             ,2,1421,1, ,D4,"201 EAST 66TH STREET, 14M", ,10065,0,0,0, -  , -  ,1961,2,D4,1625000,2017-01-25 00:00:00,40.765889,-73.96302,"(40.765889, -73.96302)"
12262,12266,1,UPPER EAST SIDE (59-79),10 COOPS - ELEVATOR APARTMENTS             ,2,1421,1, ,D4,"201 EAST 66TH STREET, 12J", ,10065,0,0,0, -  , -  ,1961,2,D4,450000,2017-02-07 00:00:00,40.765889,-73.96302,"(40.765889, -73.96302)"
12263,12267,1,UPPER EAST SIDE (59-79),10 COOPS - ELEVATOR APARTMENTS             ,2,1421,1, ,D4,"201 EAST 66TH STREET, 7B", ,10065,0,0,0, -  , -  ,1961,2,D4,826800,2017-02-17 00:00:00,40.765889,-73.96302,"(40.765889, -73.96302)"
12272,12276,1,UPPER EAST SIDE (59-79),10 COOPS - ELEVATOR APARTMENTS             ,2,1421,37, ,D4,"220 EAST 67TH, 8E", ,10065,0,0,0, -  , -  ,1964,2,D4,650000,2017-01-24 00:00:00,40.766118,-73.962175,"(40.766118, -73.962175)"
12281,12285,1,UPPER EAST SIDE (59-79),10 COOPS - ELEVATOR APARTMENTS             ,2,1425,29, ,D4,"230 EAST 71 STREET, 6E", ,10021,0,0,0, -  , -  ,1929,2,D4,595000,2017-01-30 00:00:00,40.768271,-73.959477,"(40.768271, -73.959477)"
12300,12304,1,UPPER EAST SIDE (59-79),10 COOPS - ELEVATOR APARTMENTS             ,2,1427,30, ,D4,"230 EAST 73RD STREET, 5E", ,10021,0,0,0, -  , -  ,1937,2,D4,876000,2017-01-05 00:00:00,40.769699,-73.958635,"(40.769699, -73.958635)"
12304,12308,1,UPPER EAST SIDE (59-79),10 COOPS - ELEVATOR APARTMENTS             ,2,1427,34, ,D4,"220 EAST 73RD STREET, 1E", ,10021,0,0,0, -  , -  ,1932,2,D4,399000,2017-02-15 00:00:00,40.769833,-73.95895,"(40.769833, -73.95895)"
12305,12309,1,UPPER EAST SIDE (59-79),10 COOPS - ELEVATOR APARTMENTS             ,2,1427,34, ,D4,"220 EAST 73RD STREET, 4A", ,10021,0,0,0, -  , -  ,1932,2,D4,385000,2017-02-23 00:00:00,40.769833,-73.95895,"(40.769833, -73.95895)"
12312,12316,1,UPPER EAST SIDE (59-79),10 COOPS - ELEVATOR APARTMENTS             ,2,1427,38, ,D4,"210 EAST 73RD STREET, PHA", ,10021,0,0,0, -  , -  ,1929,2,D4,3500000,2017-01-11 00:00:00,40.769968,-73.959268,"(40.769968, -73.959268)"
12313,12317,1,UPPER EAST SIDE (59-79),10 COOPS - ELEVATOR APARTMENTS             ,2,1427,38, ,D4,"210 EAST 73RD STREET, 5E", ,10021,0,0,0, -  , -  ,1929,2,D4,845000,2017-02-23 00:00:00,40.769968,-73.959268,"(40.769968, -73.959268)"
12318,12322,1,UPPER EAST SIDE (59-79),10 COOPS - ELEVATOR APARTMENTS             ,2,1428,9, ,D4,"215 EAST 73RD STREET, 8D", ,10021,0,0,0, -  , -  ,1930,2,D4,515000,2017-01-11 00:00:00,40.7701,-73.959066,"(40.7701, -73.959066)"
12325,12329,1,UPPER EAST SIDE (59-79),10 COOPS - ELEVATOR APARTMENTS             ,2,1428,45, ,D4,"200 EAST 74TH STREET, 5H", ,10021,0,0,0, -  , -  ,1962,2,D4,1625000,2017-01-19 00:00:00,40.770766,-73.959249,"(40.770766, -73.959249)"
12337,12341,1,UPPER EAST SIDE (59-79),10 COOPS - ELEVATOR APARTMENTS             ,2,1431,11, ,D4,"221 EAST 76TH   STREET, 5F", ,10021,0,0,0, -  , -  ,1929,2,D4,365000,2017-02-17 00:00:00,40.771975,-73.957615,"(40.771975, -73.957615)"
12357,12361,1,UPPER EAST SIDE (59-79),10 COOPS - ELEVATOR APARTMENTS             ,2,1432,1, ,D4,"201 EAST 77TH STREET, 10D", ,10075,0,0,0, -  , -  ,1965,2,D4,1475000,2017-01-10 00:00:00,40.772928,-73.957907,"(40.772928, -73.957907)"
12365,12369,1,UPPER EAST SIDE (59-79),10 COOPS - ELEVATOR APARTMENTS             ,2,1432,5, ,D4,"205 EAST 77TH STREET, 2E", ,10075,0,0,0, -  , -  ,1962,2,D4,374500,2017-01-17 00:00:00,40.772864,-73.957709,"(40.772864, -73.957709)"
12382,12386,1,UPPER EAST SIDE (59-79),10 COOPS - ELEVATOR APARTMENTS             ,2,1433,34, ,D4,"230 EAST 79TH STREET, 4D", ,10075,0,0,0, -  , -  ,1964,2,D4,400000,2017-01-04 00:00:00,40.773607,-73.9561,"(40.773607, -73.9561)"
12383,12387,1,UPPER EAST SIDE (59-79),10 COOPS - ELEVATOR APARTMENTS             ,2,1433,34, ,D4,"230 EAST 79TH   STREET, 14B", ,10075,0,0,0, -  , -  ,1964,2,D4,450000,2017-02-01 00:00:00,40.773607,-73.9561,"(40.773607, -73.9561)"
12413,12417,1,UPPER EAST SIDE (59-79),10 COOPS - ELEVATOR APARTMENTS             ,2,1440,5, ,D4,"315 EAST 65TH ST, 9A", ,10065,0,0,0, -  , -  ,1962,2,D4,930000,2017-01-20 00:00:00,40.764197,-73.960872,"(40.764197, -73.960872)"
12414,12418,1,UPPER EAST SIDE (59-79),10 COOPS - ELEVATOR APARTMENTS             ,2,1440,5, ,D4,"315 EAST 65TH STREET, 4B", ,10065,0,0,0, -  , -  ,1962,2,D4,1545000,2017-02-09 00:00:00,40.764197,-73.960872,"(40.764197, -73.960872)"
12421,12425,1,UPPER EAST SIDE (59-79),10 COOPS - ELEVATOR APARTMENTS             ,2,1441,17, ,D4,"333 EAST 66TH STREET, 14L", ,10065,0,0,0, -  , -  ,1964,2,D4,485000,2017-01-17 00:00:00,40.764371,-73.959379,"(40.764371, -73.959379)"
12422,12426,1,UPPER EAST SIDE (59-79),10 COOPS - ELEVATOR APARTMENTS             ,2,1441,17, ,D4,"333 EAST 66TH STREET, 11R", ,10065,0,0,0, -  , -  ,1964,2,D4,480000,2017-02-15 00:00:00,40.764371,-73.959379,"(40.764371, -73.959379)"
12430,12434,1,UPPER EAST SIDE (59-79),10 COOPS - ELEVATOR APARTMENTS             ,2,1443,1, ,D4,"315 EAST 68TH STREET, 14M", ,10065,0,0,0, -  , -  ,1931,2,D4,495000,2017-01-30 00:00:00,40.766215,-73.959912,"(40.766215, -73.959912)"
12431,12435,1,UPPER EAST SIDE (59-79),10 COOPS - ELEVATOR APARTMENTS             ,2,1443,1, ,D4,"315 EAST 68TH STREET, 2J", ,10065,0,0,0, -  , -  ,1931,2,D4,805000,2017-02-06 00:00:00,40.766215,-73.959912,"(40.766215, -73.959912)"
12432,12436,1,UPPER EAST SIDE (59-79),10 COOPS - ELEVATOR APARTMENTS             ,2,1443,1, ,D4,"315 E 68TH STREET, 2Q", ,10065,0,0,0, -  , -  ,1931,2,D4,610000,2017-02-22 00:00:00,40.766215,-73.959912,"(40.766215, -73.959912)"
12440,12444,1,UPPER EAST SIDE (59-79),10 COOPS - ELEVATOR APARTMENTS             ,2,1444,8, ,D4,"315 EAST 69TH STREET, 7H", ,10021,0,0,0, -  , -  ,1961,2,D4,380000,2017-01-06 00:00:00,40.766528,-73.958672,"(40.766528, -73.958672)"
12460,12464,1,UPPER EAST SIDE (59-79),10 COOPS - ELEVATOR APARTMENTS             ,2,1444,43, ,D4,"310 EAST 70TH STREET, 11Q", ,10021,0,0,0, -  , -  ,1959,2,D4,1100000,2017-01-20 00:00:00,40.766992,-73.95885,"(40.766992, -73.95885)"
12461,12465,1,UPPER EAST SIDE (59-79),10 COOPS - ELEVATOR APARTMENTS             ,2,1444,43, ,D4,"310 EAST 70TH STREET, 1D", ,10021,0,0,0, -  , -  ,1959,2,D4,680000,2017-02-27 00:00:00,40.766992,-73.95885,"(40.766992, -73.95885)"
12470,12474,1,UPPER EAST SIDE (59-79),10 COOPS - ELEVATOR APARTMENTS             ,2,1445,7, ,D4,"315 EAST 70TH STREET, 3B", ,10021,0,0,0, -  , -  ,1960,2,D4,415000,2017-02-03 00:00:00,40.767319,-73.9586,"(40.767319, -73.9586)"
12471,12475,1,UPPER EAST SIDE (59-79),10 COOPS - ELEVATOR APARTMENTS             ,2,1445,7, ,D4,"315 EAST 70TH STREET, 2C", ,10021,0,0,0, -  , -  ,1960,2,D4,425000,2017-01-12 00:00:00,40.767319,-73.9586,"(40.767319, -73.9586)"
12472,12476,1,UPPER EAST SIDE (59-79),10 COOPS - ELEVATOR APARTMENTS             ,2,1445,7, ,D4,"315 EAST 70TH STREET, 9F", ,10021,0,0,0, -  , -  ,1960,2,D4,1245000,2017-01-27 00:00:00,40.767319,-73.9586,"(40.767319, -73.9586)"
12487,12491,1,UPPER EAST SIDE (59-79),10 COOPS - ELEVATOR APARTMENTS             ,2,1446,23, ,D4,"360 EAST 72ND STREET, C2803", ,10021,0,0,0, -  , -  ,1963,2,D4,1650000,2017-01-06 00:00:00,40.76778,-73.956344,"(40.76778, -73.956344)"
12488,12492,1,UPPER EAST SIDE (59-79),10 COOPS - ELEVATOR APARTMENTS             ,2,1446,23, ,D4,"360 EAST 72ND STREET, B1005", ,10021,0,0,0, -  , -  ,1963,2,D4,962000,2017-01-13 00:00:00,40.76778,-73.956344,"(40.76778, -73.956344)"
12489,12493,1,UPPER EAST SIDE (59-79),10 COOPS - ELEVATOR APARTMENTS             ,2,1446,23, ,D4,"360 EAST 72ND STREET, B208", ,10021,0,0,0, -  , -  ,1963,2,D4, -  ,2017-02-14 00:00:00,40.76778,-73.956344,"(40.76778, -73.956344)"
12493,12497,1,UPPER EAST SIDE (59-79),10 COOPS - ELEVATOR APARTMENTS             ,2,1446,38, ,D4,"340 EAST 72ND STREET, 10F", ,10021,0,0,0, -  , -  ,1930,2,D4, -  ,2017-01-23 00:00:00,40.768152,-73.95722,"(40.768152, -73.95722)"
12496,12500,1,UPPER EAST SIDE (59-79),10 COOPS - ELEVATOR APARTMENTS             ,2,1446,42, ,D4,"320 EAST 72ND STREET, 1617B", ,10021,0,0,0, -  , -  ,1930,2,D4, -  ,2017-01-30 00:00:00,40.768326,-73.957635,"(40.768326, -73.957635)"
12499,12503,1,UPPER EAST SIDE (59-79),10 COOPS - ELEVATOR APARTMENTS             ,2,1447,9, ,D4,"315 EAST 72ND STREET, 16H", ,10021,0,0,0, -  , -  ,1958,2,D4,2150000,2017-01-05 00:00:00,40.768534,-73.957318,"(40.768534, -73.957318)"
12500,12504,1,UPPER EAST SIDE (59-79),10 COOPS - ELEVATOR APARTMENTS             ,2,1447,9, ,D4,"315 EAST 72 STREET, 1A", ,10021,0,0,0, -  , -  ,1958,2,D4,535000,2017-01-24 00:00:00,40.768534,-73.957318,"(40.768534, -73.957318)"
12501,12505,1,UPPER EAST SIDE (59-79),10 COOPS - ELEVATOR APARTMENTS             ,2,1447,9, ,D4,"315 EAST 72ND STREET, 15H/J", ,10021,0,0,0, -  , -  ,1958,2,D4,3825000,2017-01-18 00:00:00,40.768534,-73.957318,"(40.768534, -73.957318)"
12509,12513,1,UPPER EAST SIDE (59-79),10 COOPS - ELEVATOR APARTMENTS             ,2,1447,19, ,D4,"353 EAST 72ND   STREET, 9D", ,10021,0,0,0, -  , -  ,1975,2,D4,675000,2017-02-06 00:00:00,40.768259,-73.956497,"(40.768259, -73.956497)"
12510,12514,1,UPPER EAST SIDE (59-79),10 COOPS - ELEVATOR APARTMENTS             ,2,1447,19, ,D4,"353 EAST 72ND STREET, 23C", ,10021,0,0,0, -  , -  ,1975,2,D4,605000,2017-02-22 00:00:00,40.768259,-73.956497,"(40.768259, -73.956497)"
12533,12537,1,UPPER EAST SIDE (59-79),10 COOPS - ELEVATOR APARTMENTS             ,2,1450,1, ,D4,"301 EAST 75TH STREET, 11H", ,10021,0,0,0, -  , -  ,1966,2,D4,725000,2017-01-18 00:00:00,40.770715,-73.956579,"(40.770715, -73.956579)"
12544,12548,1,UPPER EAST SIDE (59-79),10 COOPS - ELEVATOR APARTMENTS             ,2,1450,23, ,D4,"370 EAST 76TH STREET, A406", ,10021,0,0,0, -  , -  ,1966,2,D4,544763,2017-01-03 00:00:00,40.770664,-73.955019,"(40.770664, -73.955019)"
12545,12549,1,UPPER EAST SIDE (59-79),10 COOPS - ELEVATOR APARTMENTS             ,2,1450,23, ,D4,"1445 1 AVENUE, 2002", ,10021,0,0,0, -  , -  ,1966,2,D4,1262000,2017-01-17 00:00:00,40.769905,-73.954574,"(40.769905, -73.954574)"
12546,12550,1,UPPER EAST SIDE (59-79),10 COOPS - ELEVATOR APARTMENTS             ,2,1450,23, ,D4,"370 EAST 76TH STREET, A606", ,10021,0,0,0, -  , -  ,1966,2,D4,549855,2017-01-30 00:00:00,40.770664,-73.955019,"(40.770664, -73.955019)"
12553,12557,1,UPPER EAST SIDE (59-79),10 COOPS - ELEVATOR APARTMENTS             ,2,1451,23, ,D4,"363 EAST 76TH STREET, 21G", ,10075,0,0,0, -  , -  ,1963,2,D4, -  ,2017-01-25 00:00:00,40.770606,-73.954364,"(40.770606, -73.954364)"
12554,12558,1,UPPER EAST SIDE (59-79),10 COOPS - ELEVATOR APARTMENTS             ,2,1451,23, ,D4,"363 EAST 76TH STREET, 7C", ,10075,0,0,0, -  , -  ,1963,2,D4,1405000,2017-02-03 00:00:00,40.770606,-73.954364,"(40.770606, -73.954364)"
12563,12567,1,UPPER EAST SIDE (59-79),10 COOPS - ELEVATOR APARTMENTS             ,2,1451,31, ,D4,"350 EAST 77TH STREET, 1J", ,10075,0,0,0, -  , -  ,1920,2,D4,481650,2017-01-13 00:00:00,40.77138,-73.955173,"(40.77138, -73.955173)"
12564,12568,1,UPPER EAST SIDE (59-79),10 COOPS - ELEVATOR APARTMENTS             ,2,1451,31, ,D4,"350 EAST 77TH   STREET, 2D", ,10075,0,0,0, -  , -  ,1920,2,D4,810000,2017-01-06 00:00:00,40.77138,-73.955173,"(40.77138, -73.955173)"
12569,12573,1,UPPER EAST SIDE (59-79),10 COOPS - ELEVATOR APARTMENTS             ,2,1452,6, ,D4,"315 EAST 77TH STREET, 5C", ,10075,0,0,0, -  , -  ,1928,2,D4,790000,2017-01-25 00:00:00,40.771805,-73.955242,"(40.771805, -73.955242)"
12591,12595,1,UPPER EAST SIDE (59-79),10 COOPS - ELEVATOR APARTMENTS             ,2,1453,43, ,D4,"308 EAST 79TH STREET, 10L/M", ,10075,0,0,0, -  , -  ,1928,2,D4,1350000,2017-01-18 00:00:00,40.772926,-73.954489,"(40.772926, -73.954489)"
12592,12596,1,UPPER EAST SIDE (59-79),10 COOPS - ELEVATOR APARTMENTS             ,2,1453,43, ,D4,"308 EAST 79TH STREET, 10K", ,10075,0,0,0, -  , -  ,1928,2,D4,822483,2017-02-17 00:00:00,40.772926,-73.954489,"(40.772926, -73.954489)"
12610,12614,1,UPPER EAST SIDE (59-79),10 COOPS - ELEVATOR APARTMENTS             ,2,1460,1, ,D4,"401 EAST 65 STREET, 14A", ,10065,0,0,0, -  , -  ,1962,2,D4,1100000,2017-01-04 00:00:00,40.763321,-73.958862,"(40.763321, -73.958862)"
12611,12615,1,UPPER EAST SIDE (59-79),10 COOPS - ELEVATOR APARTMENTS             ,2,1460,1, ,D4,"401 EAST 65TH STREET, 12E", ,10065,0,0,0, -  , -  ,1962,2,D4,475000,2017-01-04 00:00:00,40.763321,-73.958862,"(40.763321, -73.958862)"
12614,12618,1,UPPER EAST SIDE (59-79),10 COOPS - ELEVATOR APARTMENTS             ,2,1460,17, ,D4,"435 EAST 65TH STREET, 5B", ,10065,0,0,0, -  , -  ,1963,2,D4,410000,2017-02-07 00:00:00,40.762786,-73.957569,"(40.762786, -73.957569)"
12624,12628,1,UPPER EAST SIDE (59-79),10 COOPS - ELEVATOR APARTMENTS             ,2,1466,37, ,D4,"420 EAST 72ND STREET, 17A", ,10021,0,0,0, -  , -  ,1962,2,D4,1094000,2017-01-10 00:00:00,40.76732,-73.955269,"(40.76732, -73.955269)"
12625,12629,1,UPPER EAST SIDE (59-79),10 COOPS - ELEVATOR APARTMENTS             ,2,1466,37, ,D4,"420 EAST 72ND STREET, 10FG", ,10021,0,0,0, -  , -  ,1962,2,D4,1535000,2017-02-21 00:00:00,40.76732,-73.955269,"(40.76732, -73.955269)"
12638,12642,1,UPPER EAST SIDE (59-79),10 COOPS - ELEVATOR APARTMENTS             ,2,1469,28, ,D4,"444 EAST 75TH STREET, 5A", ,10021,0,0,0, -  , -  ,1963,2,D4,737000,2017-01-19 00:00:00,40.76879,-73.952555,"(40.76879, -73.952555)"
12639,12643,1,UPPER EAST SIDE (59-79),10 COOPS - ELEVATOR APARTMENTS             ,2,1469,28, ,D4,"444 EAST 75TH STREET, 10H", ,10021,0,0,0, -  , -  ,1963,2,D4,566000,2017-02-06 00:00:00,40.76879,-73.952555,"(40.76879, -73.952555)"
12640,12644,1,UPPER EAST SIDE (59-79),10 COOPS - ELEVATOR APARTMENTS             ,2,1469,28, ,D4,"444 EAST 75TH ST, 2G", ,10021,0,0,0, -  , -  ,1963,2,D4,459000,2017-02-27 00:00:00,40.76879,-73.952555,"(40.76879, -73.952555)"
12647,12651,1,UPPER EAST SIDE (59-79),10 COOPS - ELEVATOR APARTMENTS             ,2,1471,45, ,D4,"400 EAST 77TH STREET, 7F", ,10075,0,0,0, -  , -  ,1964,2,D4,660000,2017-02-17 00:00:00,40.770703,-73.953247,"(40.770703, -73.953247)"
12653,12657,1,UPPER EAST SIDE (59-79),10 COOPS - ELEVATOR APARTMENTS             ,2,1472,14, ,D4,"435 EAST 77TH   STREET, 2-D", ,10075,0,0,0, -  , -  ,1962,2,D4,410000,2017-02-01 00:00:00,40.770577,-73.952292,"(40.770577, -73.952292)"
12665,12669,1,UPPER EAST SIDE (59-79),10 COOPS - ELEVATOR APARTMENTS             ,2,1473,18, ,D4,"440 EAST 79TH STREET, 2N", ,10075,0,0,0, -  , -  ,1956,2,D4, -  ,2017-02-22 00:00:00,40.77167,-73.951506,"(40.77167, -73.951506)"
12680,12684,1,UPPER EAST SIDE (59-79),10 COOPS - ELEVATOR APARTMENTS             ,2,1483,38, ,D4,"520 EAST 72ND STREET, 6T", ,10021,0,0,0, -  , -  ,1964,2,D4,675000,2017-01-18 00:00:00,40.7662,-73.952635,"(40.7662, -73.952635)"
12681,12685,1,UPPER EAST SIDE (59-79),10 COOPS - ELEVATOR APARTMENTS             ,2,1483,38, ,D4,"520 EAST 72ND STREET, 2H", ,10021,0,0,0, -  , -  ,1964,2,D4,605000,2017-01-25 00:00:00,40.7662,-73.952635,"(40.7662, -73.952635)"
12687,12691,1,UPPER EAST SIDE (59-79),10 COOPS - ELEVATOR APARTMENTS             ,2,1487,39, ,D4,"520 EAST 76TH STREET, 5G", ,10021,0,0,0, -  , -  ,1964,2,D4,600000,2017-01-24 00:00:00,40.768878,-73.950839,"(40.768878, -73.950839)"
12688,12692,1,UPPER EAST SIDE (59-79),10 COOPS - ELEVATOR APARTMENTS             ,2,1487,39, ,D4,"520 EAST 76TH STREET, 3H", ,10021,0,0,0, -  , -  ,1964,2,D4,590000,2017-02-03 00:00:00,40.768878,-73.950839,"(40.768878, -73.950839)"
12699,12703,1,UPPER EAST SIDE (59-79),13 CONDOS - ELEVATOR APARTMENTS            ,2,1375,1047, ,R4,40 EAST 61ST   STREET,12C,10065,1,0,1, -  , -  ,1927,2,R4, -  ,2017-02-27 00:00:00,40.764396,-73.969718,"(40.764396, -73.969718)"
12700,12704,1,UPPER EAST SIDE (59-79),13 CONDOS - ELEVATOR APARTMENTS            ,2,1375,1047, ,R4,40 EAST 61ST   STREET,12C,10065,1,0,1, -  , -  ,1927,2,R4, -  ,2017-01-19 00:00:00,40.764396,-73.969718,"(40.764396, -73.969718)"
12701,12705,1,UPPER EAST SIDE (59-79),13 CONDOS - ELEVATOR APARTMENTS            ,2,1375,1217, ,R4,530 PARK AVENUE,3J,10065,1,0,1, -  , -  ,1941,2,R4,1323725,2017-01-05 00:00:00,40.764014,-73.969306,"(40.764014, -73.969306)"
12704,12708,1,UPPER EAST SIDE (59-79),13 CONDOS - ELEVATOR APARTMENTS            ,2,1375,1279, ,R4,530 PARK AVENUE,15A,10065,1,0,1, -  , -  ,1941,2,R4,6015000,2017-01-20 00:00:00,40.764014,-73.969306,"(40.764014, -73.969306)"
12705,12709,1,UPPER EAST SIDE (59-79),13 CONDOS - ELEVATOR APARTMENTS            ,2,1375,1281, ,R4,530 PARK AVENUE,15D,10065,1,0,1, -  , -  ,1941,2,R4,5200000,2017-01-12 00:00:00,40.764014,-73.969306,"(40.764014, -73.969306)"
12715,12719,1,UPPER EAST SIDE (59-79),13 CONDOS - ELEVATOR APARTMENTS            ,2,1384,1139, ,R4,15 EAST 69TH   STREET,10D,10021,1,0,1, -  , -  ,1926,2,R4,5200000,2017-01-11 00:00:00,40.770024,-73.967009,"(40.770024, -73.967009)"
12724,12728,1,UPPER EAST SIDE (59-79),13 CONDOS - ELEVATOR APARTMENTS            ,2,1392,1115, ,R4,40 EAST 78TH STREET,PHA,10075,1,0,1, -  , -  ,1958,2,R4,3450000,2017-02-28 00:00:00,40.775454,-73.96245,"(40.775454, -73.96245)"
12746,12750,1,UPPER EAST SIDE (59-79),13 CONDOS - ELEVATOR APARTMENTS            ,2,1395,1255, ,R4,525 PARK AVENUE,3C,10065,1,0,1, -  , -  ,0,2,R4, -  ,2017-02-10 00:00:00,40.763874,-73.968801,"(40.763874, -73.968801)"
12771,12775,1,UPPER EAST SIDE (59-79),13 CONDOS - ELEVATOR APARTMENTS            ,2,1398,1083, ,R4,188 EAST 64TH   STREET,903,10065,1,0,1, -  , -  ,1987,2,R4,1200000,2017-01-17 00:00:00,40.764673,-73.964597,"(40.764673, -73.964597)"
12774,12778,1,UPPER EAST SIDE (59-79),13 CONDOS - ELEVATOR APARTMENTS            ,2,1398,1130, ,R4,188 EAST 64TH STREET,1904,10065,1,0,1, -  , -  ,1987,2,R4, -  ,2017-01-23 00:00:00,40.764673,-73.964597,"(40.764673, -73.964597)"
12783,12787,1,UPPER EAST SIDE (59-79),13 CONDOS - ELEVATOR APARTMENTS            ,2,1400,1086, ,R4,181 EAST 65TH STREET,28B,10065,1,0,1, -  , -  ,0,2,R4, -  ,2017-01-20 00:00:00,40.765509,-73.964074,"(40.765509, -73.964074)"
12797,12801,1,UPPER EAST SIDE (59-79),13 CONDOS - ELEVATOR APARTMENTS            ,2,1406,1359, ,R4,737 PARK AVENUE,16A,10021,1,0,1, -  , -  ,1940,2,R4,10020866,2017-01-25 00:00:00,40.770453,-73.963988,"(40.770453, -73.963988)"
12801,12805,1,UPPER EAST SIDE (59-79),13 CONDOS - ELEVATOR APARTMENTS            ,2,1407,1038, ,R4,157 EAST 72ND STREET,4A,10021,1,0,1, -  , -  ,1923,2,R4,770000,2017-02-08 00:00:00,40.77022,-73.961093,"(40.77022, -73.961093)"
12807,12811,1,UPPER EAST SIDE (59-79),13 CONDOS - ELEVATOR APARTMENTS            ,2,1409,1010, ,R4,157 EAST 74TH STREET,6A,10021,1,0,1, -  , -  ,1986,2,R4,6000000,2017-02-02 00:00:00,40.771635,-73.960694,"(40.771635, -73.960694)"
12811,12815,1,UPPER EAST SIDE (59-79),13 CONDOS - ELEVATOR APARTMENTS            ,2,1410,1248, ,R4,188 EAST 76TH   STREET,16B,10021,1,0,1, -  , -  ,0,2,R4,3150000,2017-01-18 00:00:00,40.772391,-73.959135,"(40.772391, -73.959135)"
12812,12816,1,UPPER EAST SIDE (59-79),13 CONDOS - ELEVATOR APARTMENTS            ,2,1410,1252, ,R4,188 EAST 76TH   STREET,18B,10021,1,0,1, -  , -  ,0,2,R4,3000000,2017-02-24 00:00:00,40.772391,-73.959135,"(40.772391, -73.959135)"
12828,12832,1,UPPER EAST SIDE (59-79),13 CONDOS - ELEVATOR APARTMENTS            ,2,1412,1166, ,R4,188 EAST 78TH   STREET,28A,10075,1,0,1, -  , -  ,0,2,R4,4800000,2017-01-03 00:00:00,40.773605,-73.958064,"(40.773605, -73.958064)"
12836,12840,1,UPPER EAST SIDE (59-79),13 CONDOS - ELEVATOR APARTMENTS            ,2,1413,1016, ,R4,124 EAST 79TH   STREET,5D,10075,1,0,1, -  , -  ,1985,2,R4, -  ,2017-01-16 00:00:00,40.77508,-73.959562,"(40.77508, -73.959562)"
12839,12843,1,UPPER EAST SIDE (59-79),13 CONDOS - ELEVATOR APARTMENTS            ,2,1413,1053, ,R4,124 EAST 79TH   STREET,15A,10075,1,0,1, -  , -  ,1985,2,R4,2910000,2017-02-10 00:00:00,40.77508,-73.959562,"(40.77508, -73.959562)"
12852,12856,1,UPPER EAST SIDE (59-79),13 CONDOS - ELEVATOR APARTMENTS            ,2,1415,1059, ,R4,200 EAST 61ST STREET,14F,10065,1,0,1, -  , -  ,1986,2,R4,1100000,2017-02-02 00:00:00,40.762619,-73.965479,"(40.762619, -73.965479)"
12865,12869,1,UPPER EAST SIDE (59-79),13 CONDOS - ELEVATOR APARTMENTS            ,2,1416,1040, ,R4,200 EAST 62ND   STREET,10D,10065,1,0,1, -  , -  ,1967,2,R4,3900000,2017-02-15 00:00:00,40.76308,-73.964811,"(40.76308, -73.964811)"
12868,12872,1,UPPER EAST SIDE (59-79),13 CONDOS - ELEVATOR APARTMENTS            ,2,1416,1045, ,R4,200 EAST 62ND   STREET,11D,10065,1,0,1, -  , -  ,1967,2,R4,4095000,2017-02-13 00:00:00,40.76308,-73.964811,"(40.76308, -73.964811)"
12870,12874,1,UPPER EAST SIDE (59-79),13 CONDOS - ELEVATOR APARTMENTS            ,2,1416,1051, ,R4,200 EAST 62ND   STREET,14A,10065,1,0,1, -  , -  ,1967,2,R4,3100000,2017-02-10 00:00:00,40.76308,-73.964811,"(40.76308, -73.964811)"
12875,12879,1,UPPER EAST SIDE (59-79),13 CONDOS - ELEVATOR APARTMENTS            ,2,1416,1088, ,R4,200 EAST 62ND   STREET,22D,10065,1,0,1, -  , -  ,1967,2,R4,3225000,2017-02-13 00:00:00,40.76308,-73.964811,"(40.76308, -73.964811)"
12876,12880,1,UPPER EAST SIDE (59-79),13 CONDOS - ELEVATOR APARTMENTS            ,2,1416,1105, ,R4,200 EAST 62ND   STREET,27B,10065,1,0,1, -  , -  ,1967,2,R4,3645000,2017-02-13 00:00:00,40.76308,-73.964811,"(40.76308, -73.964811)"
12884,12888,1,UPPER EAST SIDE (59-79),13 CONDOS - ELEVATOR APARTMENTS            ,2,1419,1385, ,R4,200 EAST 65TH   STREET,27E,10065,1,0,1, -  , -  ,1987,2,R4,2700000,2017-02-08 00:00:00,40.765121,-73.963671,"(40.765121, -73.963671)"
12888,12892,1,UPPER EAST SIDE (59-79),13 CONDOS - ELEVATOR APARTMENTS            ,2,1419,1582, ,R4,220 EAST 65TH   STREET,9D,10065,1,0,1, -  , -  ,0,2,R4, -  ,2017-01-05 00:00:00,40.764479,-73.962402,"(40.764479, -73.962402)"
12891,12895,1,UPPER EAST SIDE (59-79),13 CONDOS - ELEVATOR APARTMENTS            ,2,1419,1665, ,R4,220 EAST 65TH   STREET,7H,10065,1,0,1, -  , -  ,0,2,R4, -  ,2017-02-23 00:00:00,40.764479,-73.962402,"(40.764479, -73.962402)"
12896,12900,1,UPPER EAST SIDE (59-79),13 CONDOS - ELEVATOR APARTMENTS            ,2,1420,1088, ,R4,200 EAST 66TH   STREET,A1005,10065,1,0,1, -  , -  ,1951,2,R4, -  ,2017-02-02 00:00:00,40.765083,-73.961993,"(40.765083, -73.961993)"
12897,12901,1,UPPER EAST SIDE (59-79),13 CONDOS - ELEVATOR APARTMENTS            ,2,1420,1092, ,R4,200 EAST 66TH STREET,A1505,10065,1,0,1, -  , -  ,1951,2,R4,1216578,2017-01-31 00:00:00,40.765083,-73.961993,"(40.765083, -73.961993)"
12902,12906,1,UPPER EAST SIDE (59-79),13 CONDOS - ELEVATOR APARTMENTS            ,2,1420,1125, ,R4,200 EAST 66TH STREET,A1607,10065,1,0,1, -  , -  ,1951,2,R4,1444785,2017-01-31 00:00:00,40.765083,-73.961993,"(40.765083, -73.961993)"
12905,12909,1,UPPER EAST SIDE (59-79),13 CONDOS - ELEVATOR APARTMENTS            ,2,1420,1168, ,R4,200 EAST 66TH   STREET,B0503,10065,1,0,1, -  , -  ,1951,2,R4, -  ,2017-01-13 00:00:00,40.765083,-73.961993,"(40.765083, -73.961993)"
12907,12911,1,UPPER EAST SIDE (59-79),13 CONDOS - ELEVATOR APARTMENTS            ,2,1420,1253, ,R4,200 EAST 66TH STREET,C1701,10065,1,0,1, -  , -  ,1951,2,R4,2682578,2017-02-17 00:00:00,40.765083,-73.961993,"(40.765083, -73.961993)"
12912,12916,1,UPPER EAST SIDE (59-79),13 CONDOS - ELEVATOR APARTMENTS            ,2,1420,1363, ,R4,200 EAST 66TH STREET,D0102,10065,1,0,1, -  , -  ,1951,2,R4,1221900,2017-02-27 00:00:00,40.765083,-73.961993,"(40.765083, -73.961993)"
12918,12922,1,UPPER EAST SIDE (59-79),13 CONDOS - ELEVATOR APARTMENTS            ,2,1420,1447, ,R4,200 EAST 66TH STREET,D1006,10065,1,0,1, -  , -  ,1951,2,R4,1226281,2017-02-27 00:00:00,40.765083,-73.961993,"(40.765083, -73.961993)"
12919,12923,1,UPPER EAST SIDE (59-79),13 CONDOS - ELEVATOR APARTMENTS            ,2,1420,1457, ,R4,200 EAST 66TH STREET,E0201,10065,1,0,1, -  , -  ,1951,2,R4,1695000,2017-01-05 00:00:00,40.765083,-73.961993,"(40.765083, -73.961993)"
12923,12927,1,UPPER EAST SIDE (59-79),13 CONDOS - ELEVATOR APARTMENTS            ,2,1420,1515, ,R4,200 EAST 66TH STREET,E0304,10065,1,0,1, -  , -  ,1951,2,R4,878138,2017-01-20 00:00:00,40.765083,-73.961993,"(40.765083, -73.961993)"
12924,12928,1,UPPER EAST SIDE (59-79),13 CONDOS - ELEVATOR APARTMENTS            ,2,1420,1521, ,R4,200 EAST 66TH STREET,E0904,10065,1,0,1, -  , -  ,1951,2,R4,910000,2017-01-09 00:00:00,40.765083,-73.961993,"(40.765083, -73.961993)"
12934,12938,1,UPPER EAST SIDE (59-79),13 CONDOS - ELEVATOR APARTMENTS            ,2,1423,1190, ,R4,200 EAST 69TH   STREET,8E,10021,1,0,1, -  , -  ,1991,2,R4,630000,2017-01-31 00:00:00,40.767579,-73.961726,"(40.767579, -73.961726)"
12946,12950,1,UPPER EAST SIDE (59-79),13 CONDOS - ELEVATOR APARTMENTS            ,2,1423,1408, ,R4,205 EAST 68TH STREET,T6B,10065,1,0,1, -  , -  ,1991,2,R4,675000,2017-02-03 00:00:00,40.767174,-73.961737,"(40.767174, -73.961737)"
12951,12955,1,UPPER EAST SIDE (59-79),13 CONDOS - ELEVATOR APARTMENTS            ,2,1429,1155, ,R4,255 EAST 74TH STREET,19A,10021,1,0,1, -  , -  ,2007,2,R4,4800000,2017-01-06 00:00:00,40.770325,-73.957633,"(40.770325, -73.957633)"
12953,12957,1,UPPER EAST SIDE (59-79),13 CONDOS - ELEVATOR APARTMENTS            ,2,1433,1117, ,R4,200 EAST 79TH STREET,5C,10075,1,0,1, -  , -  ,2011,2,R4,4500000,2017-01-30 00:00:00,40.774039,-73.957137,"(40.774039, -73.957137)"
12956,12960,1,UPPER EAST SIDE (59-79),13 CONDOS - ELEVATOR APARTMENTS            ,2,1436,1040, ,R4,300 EAST 62ND   STREET,1004,10065,1,0,1, -  , -  ,1985,2,R4,980000,2017-01-05 00:00:00,40.762244,-73.962795,"(40.762244, -73.962795)"
12957,12961,1,UPPER EAST SIDE (59-79),13 CONDOS - ELEVATOR APARTMENTS            ,2,1436,1074, ,R4,300 EAST 62ND   STREET,1803,10065,1,0,1, -  , -  ,1985,2,R4, -  ,2017-02-02 00:00:00,40.762244,-73.962795,"(40.762244, -73.962795)"
12958,12962,1,UPPER EAST SIDE (59-79),13 CONDOS - ELEVATOR APARTMENTS            ,2,1436,1075, ,R4,300 EAST 62ND   STREET,1804,10065,1,0,1, -  , -  ,1985,2,R4,1462500,2017-02-02 00:00:00,40.762244,-73.962795,"(40.762244, -73.962795)"
12959,12963,1,UPPER EAST SIDE (59-79),13 CONDOS - ELEVATOR APARTMENTS            ,2,1436,1076, ,R4,300 EAST 62ND STREET,1805,10065,1,0,1, -  , -  ,1985,2,R4, -  ,2017-02-15 00:00:00,40.762244,-73.962795,"(40.762244, -73.962795)"
12968,12972,1,UPPER EAST SIDE (59-79),13 CONDOS - ELEVATOR APARTMENTS            ,2,1436,1252, ,R4,350 EAST 62ND   STREET,2K,10065,1,0,1, -  , -  ,1916,2,R4,540000,2017-02-28 00:00:00,40.761649,-73.961245,"(40.761649, -73.961245)"
12970,12974,1,UPPER EAST SIDE (59-79),13 CONDOS - ELEVATOR APARTMENTS            ,2,1437,1002, ,R4,337 EAST 62ND   STREET,1B,10065,1,0,1, -  , -  ,2013,2,R4,2851100,2017-01-17 00:00:00,40.762051,-73.961689,"(40.762051, -73.961689)"
12971,12975,1,UPPER EAST SIDE (59-79),13 CONDOS - ELEVATOR APARTMENTS            ,2,1437,1022, ,R4,337 EAST 62ND   STREET,7B,10065,1,0,1, -  , -  ,2013,2,R4,2363876,2017-02-02 00:00:00,40.762051,-73.961689,"(40.762051, -73.961689)"
12981,12985,1,UPPER EAST SIDE (59-79),13 CONDOS - ELEVATOR APARTMENTS            ,2,1438,1513, ,R4,340 EAST 64TH   STREET,15N,10065,1,0,1, -  , -  ,0,2,R4,1900000,2017-02-23 00:00:00,40.762956,-73.960487,"(40.762956, -73.960487)"
12987,12991,1,UPPER EAST SIDE (59-79),13 CONDOS - ELEVATOR APARTMENTS            ,2,1438,3626, ,R4,300 EAST 64TH   STREET,8C,10065,1,0,1, -  , -  ,1996,2,R4,1035000,2017-02-01 00:00:00,40.763503,-73.961762,"(40.763503, -73.961762)"
12993,12997,1,UPPER EAST SIDE (59-79),13 CONDOS - ELEVATOR APARTMENTS            ,2,1438,3660, ,R4,300 EAST 64TH   STREET,17D,10065,1,0,1, -  , -  ,1996,2,R4,1295677,2017-01-10 00:00:00,40.763503,-73.961762,"(40.763503, -73.961762)"
12997,13001,1,UPPER EAST SIDE (59-79),13 CONDOS - ELEVATOR APARTMENTS            ,2,1438,3670, ,R4,300 EAST 64TH   STREET,20B,10065,1,0,1, -  , -  ,1996,2,R4,1152902,2017-01-25 00:00:00,40.763503,-73.961762,"(40.763503, -73.961762)"
13006,13010,1,UPPER EAST SIDE (59-79),13 CONDOS - ELEVATOR APARTMENTS            ,2,1438,3704, ,R4,300 EAST 64TH   STREET,PHC,10065,1,0,1, -  , -  ,1996,2,R4,2175000,2017-01-05 00:00:00,40.763503,-73.961762,"(40.763503, -73.961762)"
13007,13011,1,UPPER EAST SIDE (59-79),13 CONDOS - ELEVATOR APARTMENTS            ,2,1439,1026, ,R4,304 EAST 65TH   STREET,18A,10065,1,0,1, -  , -  ,1987,2,R4, -  ,2017-01-27 00:00:00,40.764088,-73.961545,"(40.764088, -73.961545)"
13009,13013,1,UPPER EAST SIDE (59-79),13 CONDOS - ELEVATOR APARTMENTS            ,2,1439,1044, ,R4,304 EAST 65TH STREET,36A,10065,1,0,1, -  , -  ,1987,2,R4,1175000,2017-02-27 00:00:00,40.764088,-73.961545,"(40.764088, -73.961545)"
13010,13014,1,UPPER EAST SIDE (59-79),13 CONDOS - ELEVATOR APARTMENTS            ,2,1439,1057, ,R4,304 EAST 65TH   STREET,11B,10065,1,0,1, -  , -  ,1987,2,R4, -  ,2017-02-14 00:00:00,40.764088,-73.961545,"(40.764088, -73.961545)"
13011,13015,1,UPPER EAST SIDE (59-79),13 CONDOS - ELEVATOR APARTMENTS            ,2,1439,1063, ,R4,304 EAST 65TH   STREET,18B,10065,1,0,1, -  , -  ,1987,2,R4, -  ,2017-01-27 00:00:00,40.764088,-73.961545,"(40.764088, -73.961545)"
13013,13017,1,UPPER EAST SIDE (59-79),13 CONDOS - ELEVATOR APARTMENTS            ,2,1439,1135, ,R4,304 EAST 65TH   STREET,35D,10065,1,0,1, -  , -  ,1987,2,R4,1195000,2017-02-13 00:00:00,40.764088,-73.961545,"(40.764088, -73.961545)"
13022,13026,1,UPPER EAST SIDE (59-79),13 CONDOS - ELEVATOR APARTMENTS            ,2,1446,1176, ,R4,308 EAST 72ND   STREET,20C,10021,1,0,1, -  , -  ,0,2,R4,1,2017-02-13 00:00:00,40.768485,-73.958014,"(40.768485, -73.958014)"
13030,13034,1,UPPER EAST SIDE (59-79),13 CONDOS - ELEVATOR APARTMENTS            ,2,1449,1058, ,R4,330 EAST 75TH   STREET,7G,10021,1,0,1, -  , -  ,0,2,R4,1350000,2017-02-23 00:00:00,40.769815,-73.955086,"(40.769815, -73.955086)"
13036,13040,1,UPPER EAST SIDE (59-79),13 CONDOS - ELEVATOR APARTMENTS            ,2,1449,1119, ,R4,330 EAST 75TH   STREET,14H,10021,1,0,1, -  , -  ,0,2,R4,830000,2017-01-11 00:00:00,40.769815,-73.955086,"(40.769815, -73.955086)"
13040,13044,1,UPPER EAST SIDE (59-79),13 CONDOS - ELEVATOR APARTMENTS            ,2,1451,1038, ,R4,300 EAST 77TH   STREET,11A,10075,1,0,1, -  , -  ,0,2,R4,7215000,2017-01-11 00:00:00,40.771823,-73.955798,"(40.771823, -73.955798)"
13049,13053,1,UPPER EAST SIDE (59-79),13 CONDOS - ELEVATOR APARTMENTS            ,2,1451,1093, ,R4,300 EAST 77TH   STREET,11B,10075,1,0,1, -  , -  ,2000,2,R4, -  ,2017-01-11 00:00:00,40.771823,-73.955798,"(40.771823, -73.955798)"
13050,13054,1,UPPER EAST SIDE (59-79),13 CONDOS - ELEVATOR APARTMENTS            ,2,1452,1002, ,R4,303 EAST 77TH STREET,2A,10075,1,0,1, -  , -  ,2008,2,R4,1700000,2017-02-09 00:00:00,40.771947,-73.955581,"(40.771947, -73.955581)"
13061,13065,1,UPPER EAST SIDE (59-79),13 CONDOS - ELEVATOR APARTMENTS            ,2,1458,1106, ,R4,1175 YORK AVENUE,1D,10065,1,0,1, -  , -  ,1958,2,R4,465000,2017-02-17 00:00:00,40.761549,-73.957849,"(40.761549, -73.957849)"
13067,13071,1,UPPER EAST SIDE (59-79),13 CONDOS - ELEVATOR APARTMENTS            ,2,1460,1151, ,R4,404 EAST 66TH   STREET,6M,10065,1,0,1, -  , -  ,1959,2,R4,510000,2017-01-11 00:00:00,40.763666,-73.958334,"(40.763666, -73.958334)"
13068,13072,1,UPPER EAST SIDE (59-79),13 CONDOS - ELEVATOR APARTMENTS            ,2,1460,1151, ,R4,404 EAST 66TH   STREET,6M,10065,1,0,1, -  , -  ,1959,2,R4, -  ,2017-01-11 00:00:00,40.763666,-73.958334,"(40.763666, -73.958334)"
13072,13076,1,UPPER EAST SIDE (59-79),13 CONDOS - ELEVATOR APARTMENTS            ,2,1461,1046, ,R4,400 EAST 67TH STREET,8F,10065,1,0,1, -  , -  ,2006,2,R4,2200000,2017-02-08 00:00:00,40.764285,-73.958313,"(40.764285, -73.958313)"
13085,13089,1,UPPER EAST SIDE (59-79),13 CONDOS - ELEVATOR APARTMENTS            ,2,1464,1174, ,R4,400 EAST 70TH   STREET,2902,10021,1,0,1, -  , -  ,1984,2,R4, -  ,2017-01-23 00:00:00,40.766162,-73.956742,"(40.766162, -73.956742)"
13090,13094,1,UPPER EAST SIDE (59-79),13 CONDOS - ELEVATOR APARTMENTS            ,2,1464,1208, ,R4,400 EAST 70TH STREET,3901,10021,1,0,1, -  , -  ,1984,2,R4,2695000,2017-01-04 00:00:00,40.766162,-73.956742,"(40.766162, -73.956742)"
13094,13098,1,UPPER EAST SIDE (59-79),13 CONDOS - ELEVATOR APARTMENTS            ,2,1466,1135, ,R4,422 EAST 72ND STREET,25D,10021,1,0,1, -  , -  ,1990,2,R4, -  ,2017-01-31 00:00:00,40.766971,-73.95496,"(40.766971, -73.95496)"
13095,13099,1,UPPER EAST SIDE (59-79),13 CONDOS - ELEVATOR APARTMENTS            ,2,1466,1157, ,R4,422 EAST 72ND   STREET,30A,10021,1,0,1, -  , -  ,1990,2,R4,2400000,2017-01-04 00:00:00,40.766971,-73.95496,"(40.766971, -73.95496)"
13099,13103,1,UPPER EAST SIDE (59-79),13 CONDOS - ELEVATOR APARTMENTS            ,2,1466,1196, ,R4,422 EAST 72ND   STREET,38B,10021,1,0,1, -  , -  ,1990,2,R4,2250000,2017-02-02 00:00:00,40.766971,-73.95496,"(40.766971, -73.95496)"
13101,13105,1,UPPER EAST SIDE (59-79),13 CONDOS - ELEVATOR APARTMENTS            ,2,1469,1101, ,R4,433 EAST 74TH   STREET,1A,10021,1,0,1, -  , -  ,2007,2,R4,1280000,2017-01-20 00:00:00,40.768626,-73.9536,"(40.768626, -73.9536)"
13103,13107,1,UPPER EAST SIDE (59-79),13 CONDOS - ELEVATOR APARTMENTS            ,2,1470,1008, ,R4,404 EAST 76TH STREET,2H,10021,1,0,1, -  , -  ,0,2,R4,925000,2017-01-26 00:00:00,40.770042,-73.95354,"(40.770042, -73.95354)"
13125,13129,1,UPPER EAST SIDE (59-79),13 CONDOS - ELEVATOR APARTMENTS            ,2,1473,1323, ,R4,460 EAST 79TH   STREET,3G,10075,1,0,1, -  , -  ,1960,2,R4,1013158,2017-02-06 00:00:00,40.771377,-73.950817,"(40.771377, -73.950817)"
13126,13130,1,UPPER EAST SIDE (59-79),13 CONDOS - ELEVATOR APARTMENTS            ,2,1473,1324, ,R4,460 E 79TH ST,4A,10075,1,0,1, -  , -  ,1960,2,R4,1530000,2017-01-05 00:00:00,40.771377,-73.950817,"(40.771377, -73.950817)"
13170,13174,1,UPPER EAST SIDE (59-79),13 CONDOS - ELEVATOR APARTMENTS            ,2,1487,1213, ,R4,530 EAST 76TH STREET,8B,10021,1,0,1, -  , -  ,1986,2,R4,1240000,2017-02-01 00:00:00,40.768507,-73.94992,"(40.768507, -73.94992)"
13172,13176,1,UPPER EAST SIDE (59-79),13 CONDOS - ELEVATOR APARTMENTS            ,2,1487,1254, ,R4,530 EAST 76TH   STREET,12E,10021,1,0,1, -  , -  ,1986,2,R4,955000,2017-01-20 00:00:00,40.768507,-73.94992,"(40.768507, -73.94992)"
13191,13195,1,UPPER EAST SIDE (59-79),17 CONDO COOPS                             ,2,1382,1003, ,R9,"20 EAST 68TH   STREET, 3B", ,10065,0,0,0, -  , -  ,1955,2,R9,1300000,2017-02-02 00:00:00,40.769246,-73.967623,"(40.769246, -73.967623)"
13196,13200,1,UPPER EAST SIDE (59-79),17 CONDO COOPS                             ,2,1395,1002, ,R9,"166 EAST 61ST AVENUE, 11K", ,10065,0,0,0, -  , -  ,1963,2,R9,352872,2017-01-19 00:00:00,40.76294,-73.966292,"(40.76294, -73.966292)"
13211,13215,1,UPPER EAST SIDE (59-79),17 CONDO COOPS                             ,2,1398,1303, ,R9,"139 EAST 63RD STREET, 4C", ,10065,0,0,0, -  , -  ,1961,2,R9, -  ,2017-01-27 00:00:00,40.764705,-73.966005,"(40.764705, -73.966005)"
13212,13216,1,UPPER EAST SIDE (59-79),17 CONDO COOPS                             ,2,1398,1303, ,R9,"139 EAST 63RD STREET, 7A", ,10065,0,0,0, -  , -  ,1961,2,R9,1561000,2017-01-26 00:00:00,40.764705,-73.966005,"(40.764705, -73.966005)"
13213,13217,1,UPPER EAST SIDE (59-79),17 CONDO COOPS                             ,2,1398,1303, ,R9,"139 EAST 63RD STREET, 4C", ,10065,0,0,0, -  , -  ,1961,2,R9, -  ,2017-01-27 00:00:00,40.764705,-73.966005,"(40.764705, -73.966005)"
13216,13220,1,UPPER EAST SIDE (59-79),17 CONDO COOPS                             ,2,1402,1002, ,R9,"1160 THIRD AVENUE, 4G", ,10065,0,0,0, -  , -  ,1965,2,R9,390000,2017-02-08 00:00:00,40.764584,-73.963013,"(40.764584, -73.963013)"
13220,13224,1,UPPER EAST SIDE (59-79),17 CONDO COOPS                             ,2,1409,1103, ,R9,"130 EAST 75TH STREET, 5E", ,10021,0,0,0, -  , -  ,1929,2,R9,3000000,2017-02-06 00:00:00,40.772469,-73.961251,"(40.772469, -73.961251)"
13256,13260,1,UPPER EAST SIDE (59-79),17 CONDO COOPS                             ,2,1430,1004, ,R9,"240 EAST 76TH STREET, 10W", ,10021,0,0,0, -  , -  ,1957,2,R9,499000,2017-01-26 00:00:00,40.77143,-73.956834,"(40.77143, -73.956834)"
13263,13267,1,UPPER EAST SIDE (59-79),17 CONDO COOPS                             ,2,1433,1002, ,R9,"205 EAST 78TH STREET, 12H", ,10075,0,0,0, -  , -  ,1931,2,R9, -  ,2017-01-26 00:00:00,40.773519,-73.957347,"(40.773519, -73.957347)"
13264,13268,1,UPPER EAST SIDE (59-79),17 CONDO COOPS                             ,2,1433,1002, ,R9,"205 EAST 78TH STREET, 8B", ,10075,0,0,0, -  , -  ,1931,2,R9,560000,2017-02-09 00:00:00,40.773519,-73.957347,"(40.773519, -73.957347)"
13287,13291,1,UPPER EAST SIDE (59-79),17 CONDO COOPS                             ,2,1445,1002, ,R9,"300 EAST 71ST STREET, 15C", ,10021,0,0,0, -  , -  ,1960,2,R9,1295000,2017-01-30 00:00:00,40.767871,-73.958534,"(40.767871, -73.958534)"
13288,13292,1,UPPER EAST SIDE (59-79),17 CONDO COOPS                             ,2,1445,1002, ,R9,"300 E 71ST STREET, 6S", ,10021,0,0,0, -  , -  ,1960,2,R9,440000,2017-01-31 00:00:00,40.767871,-73.958534,"(40.767871, -73.958534)"
13289,13293,1,UPPER EAST SIDE (59-79),17 CONDO COOPS                             ,2,1445,1002, ,R9,"300 EAST 71ST STREET, 14B", ,10021,0,0,0, -  , -  ,1960,2,R9,700000,2017-02-16 00:00:00,40.767871,-73.958534,"(40.767871, -73.958534)"
13290,13294,1,UPPER EAST SIDE (59-79),17 CONDO COOPS                             ,2,1445,1002, ,R9,"300 EAST 71ST STREET, 10C", ,10021,0,0,0, -  , -  ,1960,2,R9,423345,2017-02-22 00:00:00,40.767871,-73.958534,"(40.767871, -73.958534)"
13298,13302,1,UPPER EAST SIDE (59-79),17 CONDO COOPS                             ,2,1447,1002, ,R9,"305 EAST 72ND   STREET, 3BN", ,10021,0,0,0, -  , -  ,1961,2,R9,930000,2017-01-05 00:00:00,40.768843,-73.958055,"(40.768843, -73.958055)"
13299,13303,1,UPPER EAST SIDE (59-79),17 CONDO COOPS                             ,2,1447,1002, ,R9,"305 EAST 72ND   STREET, 3HN", ,10021,0,0,0, -  , -  ,1961,2,R9,685000,2017-01-26 00:00:00,40.768843,-73.958055,"(40.768843, -73.958055)"
13300,13304,1,UPPER EAST SIDE (59-79),17 CONDO COOPS                             ,2,1447,1002, ,R9,"305 EAST 72ND STREET, 2DN", ,10021,0,0,0, -  , -  ,1961,2,R9, -  ,2017-02-03 00:00:00,40.768843,-73.958055,"(40.768843, -73.958055)"
13301,13305,1,UPPER EAST SIDE (59-79),17 CONDO COOPS                             ,2,1447,1002, ,R9,"305 EAST 72ND   STREET, 3I", ,10021,0,0,0, -  , -  ,1961,2,R9,425000,2017-02-03 00:00:00,40.768843,-73.958055,"(40.768843, -73.958055)"
13310,13314,1,UPPER EAST SIDE (59-79),17 CONDO COOPS                             ,2,1448,1002, ,R9,"340 EAST 74TH STREET, 4A", ,10021,0,0,0, -  , -  ,1957,2,R9,535000,2017-02-09 00:00:00,40.769321,-73.955818,"(40.769321, -73.955818)"
13330,13334,1,UPPER EAST SIDE (59-79),17 CONDO COOPS                             ,2,1458,1103, ,R9,"1175 YORK AVENUE, 4A", ,10065,0,0,0, -  , -  ,1958,2,R9,685000,2017-01-04 00:00:00,40.761549,-73.957849,"(40.761549, -73.957849)"
13346,13350,1,UPPER EAST SIDE (59-79),17 CONDO COOPS                             ,2,1458,1202, ,R9,"420 EAST 64TH STREET, E11K", ,10065,0,0,0, -  , -  ,0,2,R9,622000,2017-01-10 00:00:00,40.761998,-73.958249,"(40.761998, -73.958249)"
13359,13363,1,UPPER EAST SIDE (59-79),17 CONDO COOPS                             ,2,1469,1003, ,R9,"401 EAST 74TH STREET, 8D", ,10021,0,0,0, -  , -  ,1962,2,R9,1435000,2017-01-04 00:00:00,40.76898,-73.954451,"(40.76898, -73.954451)"
13360,13364,1,UPPER EAST SIDE (59-79),17 CONDO COOPS                             ,2,1469,1003, ,R9,"401 EAST 74TH   STREET, 16A", ,10021,0,0,0, -  , -  ,1962,2,R9,840000,2017-01-04 00:00:00,40.76898,-73.954451,"(40.76898, -73.954451)"
13361,13365,1,UPPER EAST SIDE (59-79),17 CONDO COOPS                             ,2,1469,1003, ,R9,"401 EAST 74TH STREET, 5J", ,10021,0,0,0, -  , -  ,1962,2,R9,937950,2017-01-04 00:00:00,40.76898,-73.954451,"(40.76898, -73.954451)"
13377,13381,1,UPPER EAST SIDE (59-79),22 STORE BUILDINGS                         ,4,1384,23, ,K4,829 MADISON AVENUE, ,10021,0,8,8,2025,8505,1910,4,K4, -  ,2017-01-30 00:00:00,40.769893,-73.966633,"(40.769893, -73.966633)"
13385,13389,1,UPPER EAST SIDE (59-79),33 EDUCATIONAL FACILITIES                  ,4,1404,49, ,W2,154 EAST 70TH STREET, ,10021,0,1,1,4017,15238,1910,4,W2, -  ,2017-02-03 00:00:00,40.768832,-73.962821,"(40.768832, -73.962821)"
13392,13396,1,UPPER EAST SIDE (59-79),46 CONDO STORE BUILDINGS                   ,4,1389,1101, ,RK,933 MADISON AVENUE,COMM,10021,0,0,1, -  , -  ,1910,4,RK, -  ,2017-01-19 00:00:00,40.772948,-73.964474,"(40.772948, -73.964474)"
13396,13400,1,UPPER EAST SIDE (59-79),46 CONDO STORE BUILDINGS                   ,4,1473,1302, ,RK,460 EAST 79TH   STREET,ST12C,10075,0,0,1, -  , -  ,1960,4,RK,250000,2017-01-05 00:00:00,40.771377,-73.950817,"(40.771377, -73.950817)"
13397,13401,1,UPPER EAST SIDE (59-79),47 CONDO NON-BUSINESS STORAGE              ,4,1384,1161, ,RS,15 EAST 69TH   STREET,SU14,10021,0,0,1, -  , -  ,1926,4,RS, -  ,2017-01-11 00:00:00,40.770024,-73.967009,"(40.770024, -73.967009)"
13423,13427,1,UPPER EAST SIDE (79-96),01 ONE FAMILY DWELLINGS                    ,1,1493,63, ,A4,14 EAST 82ND   STREET, ,10028,1,0,1,2248,9300,1901,1,A4,9148120,2017-01-20 00:00:00,40.778481,-73.961463,"(40.778481, -73.961463)"
13431,13435,1,UPPER EAST SIDE (79-96),01 ONE FAMILY DWELLINGS                    ,1,1505,19, ,S1,1318 MADISON AVENUE, ,10128,1,1,2,1404,3460,1910,1,S1,6210000,2017-02-09 00:00:00,40.785616,-73.955535,"(40.785616, -73.955535)"
13442,13446,1,UPPER EAST SIDE (79-96),01 ONE FAMILY DWELLINGS                    ,1,1583,127, ,A4,558 EAST 87TH   STREET, ,10128,1,0,1,692,1824,1899,1,A4,4495000,2017-01-11 00:00:00,40.775611,-73.944561,"(40.775611, -73.944561)"
13452,13456,1,UPPER EAST SIDE (79-96),02 TWO FAMILY DWELLINGS                    ,1,1548,46, ,S2,312 EAST 86TH   STREET, ,10028,2,1,3,1788,3740,1925,1,S2, -  ,2017-02-27 00:00:00,40.777455,-73.95116,"(40.777455, -73.95116)"
13459,13463,1,UPPER EAST SIDE (79-96),07 RENTALS - WALKUP APARTMENTS             ,2B,1517,149, ,C1,146 EAST 89TH   STREET, ,10128,8,0,8,2105,5404,1910,2,C1,5075000,2017-01-13 00:00:00,40.781144,-73.953787,"(40.781144, -73.953787)"
13460,13464,1,UPPER EAST SIDE (79-96),07 RENTALS - WALKUP APARTMENTS             ,2B,1517,149, ,C1,146 EAST 89TH   STREET, ,10128,8,0,8,2105,5404,1910,2,C1, -  ,2017-01-13 00:00:00,40.781144,-73.953787,"(40.781144, -73.953787)"
13461,13465,1,UPPER EAST SIDE (79-96),07 RENTALS - WALKUP APARTMENTS             ,2B,1517,149, ,C1,146 EAST 89TH   STREET, ,10128,8,0,8,2105,5404,1910,2,C1, -  ,2017-01-13 00:00:00,40.781144,-73.953787,"(40.781144, -73.953787)"
13471,13475,1,UPPER EAST SIDE (79-96),07 RENTALS - WALKUP APARTMENTS             ,2B,1546,20, ,C1,333 EAST 83 STREET, ,10028,10,0,10,2554,8835,1920,2,C1,6600000,2017-01-25 00:00:00,40.775295,-73.951409,"(40.775295, -73.951409)"
13473,13477,1,UPPER EAST SIDE (79-96),07 RENTALS - WALKUP APARTMENTS             ,2B,1547,104, ,C4,303 EAST 84TH STREET, ,10028,10,0,10,2248,5846,1920,2,C4,4850000,2017-02-07 00:00:00,40.77646,-73.952202,"(40.77646, -73.952202)"
13477,13481,1,UPPER EAST SIDE (79-96),07 RENTALS - WALKUP APARTMENTS             ,2B,1554,2, ,C7,1750 2 AVENUE, ,10128,8,2,10,2000,7535,1910,2,C7, -  ,2017-02-11 00:00:00,40.781157,-73.949131,"(40.781157, -73.949131)"
13478,13482,1,UPPER EAST SIDE (79-96),07 RENTALS - WALKUP APARTMENTS             ,2B,1554,2, ,C7,1750 2 AVENUE, ,10128,8,2,10,2000,7535,1910,2,C7,6500000,2017-02-10 00:00:00,40.781157,-73.949131,"(40.781157, -73.949131)"
13479,13483,1,UPPER EAST SIDE (79-96),07 RENTALS - WALKUP APARTMENTS             ,2B,1554,3, ,C7,1752 2 AVENUE, ,10128,8,2,10,2000,7535,1910,2,C7, -  ,2017-02-11 00:00:00,40.781218,-73.949087,"(40.781218, -73.949087)"
13480,13484,1,UPPER EAST SIDE (79-96),07 RENTALS - WALKUP APARTMENTS             ,2B,1554,3, ,C7,1752 2 AVENUE, ,10128,8,2,10,2000,7535,1910,2,C7,6200000,2017-02-10 00:00:00,40.781218,-73.949087,"(40.781218, -73.949087)"
13491,13495,1,UPPER EAST SIDE (79-96),07 RENTALS - WALKUP APARTMENTS             ,2B,1582,13, ,C1,523B EAST 85TH   STREET, ,10028,9,0,9,2554,8375,1910,2,C1,8140000,2017-01-05 00:00:00,40.774915,-73.946586,"(40.774915, -73.946586)"
13498,13502,1,UPPER EAST SIDE (79-96),08 RENTALS - ELEVATOR APARTMENTS           ,2,1513,68, ,D3,104 EAST 85TH STREET, ,10028,20,0,20,2605,9745,1916,2,D3,12500000,2017-01-10 00:00:00,40.779197,-73.95724,"(40.779197, -73.95724)"
13499,13503,1,UPPER EAST SIDE (79-96),08 RENTALS - ELEVATOR APARTMENTS           ,2,1522,158, ,D7,1442 LEXINGTON AVENUE, ,10128,16,1,17,2562,15596,1920,2,D7,15800000,2017-01-18 00:00:00,40.784508,-73.952088,"(40.784508, -73.952088)"
13500,13504,1,UPPER EAST SIDE (79-96),08 RENTALS - ELEVATOR APARTMENTS           ,2,1546,23, ,D6,353 EAST 83RD   STREET, ,10028,232,2,234,18408,267772,1967,2,D6, -  ,2017-01-01 00:00:00,40.775222,-73.951025,"(40.775222, -73.951025)"
13513,13517,1,UPPER EAST SIDE (79-96),09 COOPS - WALKUP APARTMENTS               ,2,1522,27, ,C6,"177 EAST 93RD STREET, 4B", ,10128,0,0,0, -  , -  ,1920,2,C6,480000,2017-01-23 00:00:00,40.783724,-73.951579,"(40.783724, -73.951579)"
13514,13518,1,UPPER EAST SIDE (79-96),09 COOPS - WALKUP APARTMENTS               ,2,1527,40, ,C6,"218 EAST 82ND STREET, 2RE", ,10028,0,0,0, -  , -  ,1920,2,C6,450000,2017-01-18 00:00:00,40.775789,-73.955098,"(40.775789, -73.955098)"
13521,13525,1,UPPER EAST SIDE (79-96),09 COOPS - WALKUP APARTMENTS               ,2,1533,13, ,C6,"227 EAST 87TH STREET, 3A", ,10128,0,0,0, -  , -  ,1920,2,C6,330000,2017-02-21 00:00:00,40.77912,-73.952332,"(40.77912, -73.952332)"
13534,13538,1,UPPER EAST SIDE (79-96),09 COOPS - WALKUP APARTMENTS               ,2,1535,42, ,C6,"204 EAST 90TH STREET, 1W", ,10128,0,0,0, -  , -  ,1920,2,C6,525000,2017-01-09 00:00:00,40.781071,-73.951633,"(40.781071, -73.951633)"
13535,13539,1,UPPER EAST SIDE (79-96),09 COOPS - WALKUP APARTMENTS               ,2,1535,42, ,C6,"206 EAST 90TH STREET, 1E", ,10128,0,0,0, -  , -  ,1920,2,C6,505000,2017-02-13 00:00:00,40.781034,-73.951555,"(40.781034, -73.951555)"
13542,13546,1,UPPER EAST SIDE (79-96),09 COOPS - WALKUP APARTMENTS               ,2,1547,42, ,C6,"322 EAST 85TH STREET, 3B", ,10028,0,0,0, -  , -  ,1905,2,C6,405000,2017-01-05 00:00:00,40.776701,-73.951313,"(40.776701, -73.951313)"
13552,13556,1,UPPER EAST SIDE (79-96),09 COOPS - WALKUP APARTMENTS               ,2,1562,37, ,C6,"418 EAST 83RD   STREET, 5-C", ,10028,0,0,0, -  , -  ,1930,2,C6,330000,2017-01-10 00:00:00,40.774385,-73.949775,"(40.774385, -73.949775)"
13558,13562,1,UPPER EAST SIDE (79-96),09 COOPS - WALKUP APARTMENTS               ,2,1570,5, ,C6,"403 EAST 90TH STREET, 3R", ,10128,0,0,0, -  , -  ,1920,2,C6,450000,2017-01-30 00:00:00,40.77931,-73.946951,"(40.77931, -73.946951)"
13564,13568,1,UPPER EAST SIDE (79-96),09 COOPS - WALKUP APARTMENTS               ,2,1579,44, ,C6,512 EAST 83RD STREET, ,10028,0,0,0, -  , -  ,1910,2,C6,900000,2017-02-21 00:00:00,40.773549,-73.947784,"(40.773549, -73.947784)"
13568,13572,1,UPPER EAST SIDE (79-96),09 COOPS - WALKUP APARTMENTS               ,2,1580,14, ,C6,"521 EAST 83RD STREET, 4E", ,10028,0,0,0, -  , -  ,1925,2,C6,62442,2017-01-17 00:00:00,40.77355,-73.947266,"(40.77355, -73.947266)"
13569,13573,1,UPPER EAST SIDE (79-96),09 COOPS - WALKUP APARTMENTS               ,2,1581,12, ,C6,"523 EAST 84TH STREET, 2B", ,10028,0,0,0, -  , -  ,1910,2,C6,615000,2017-01-12 00:00:00,40.77426,-73.946958,"(40.77426, -73.946958)"
13571,13575,1,UPPER EAST SIDE (79-96),09 COOPS - WALKUP APARTMENTS               ,2,1584,16, ,C6,"531 EAST 87TH STREET, 3A", ,10128,0,0,0, -  , -  ,1910,2,C6,290000,2017-02-28 00:00:00,40.776105,-73.945187,"(40.776105, -73.945187)"
13578,13582,1,UPPER EAST SIDE (79-96),10 COOPS - ELEVATOR APARTMENTS             ,2,1491,1, ,D4,"980 FIFTH AVENUE, 22-B", ,10075,0,0,0, -  , -  ,1966,2,D4,2600000,2017-02-09 00:00:00,40.773357,-73.956208,"(40.773357, -73.956208)"
13596,13600,1,UPPER EAST SIDE (79-96),10 COOPS - ELEVATOR APARTMENTS             ,2,1493,72, ,D4,"1001 FIFTH AVENUE, 18A", ,10028,0,0,0, -  , -  ,1978,2,D4,5800000,2017-01-31 00:00:00,40.776629,-73.953914,"(40.776629, -73.953914)"
13600,13604,1,UPPER EAST SIDE (79-96),10 COOPS - ELEVATOR APARTMENTS             ,2,1493,72, ,D4,"1001 FIFTH AVENUE, 12A/B", ,10028,0,0,0, -  , -  ,1978,2,D4,4995000,2017-01-27 00:00:00,40.776629,-73.953914,"(40.776629, -73.953914)"
13601,13605,1,UPPER EAST SIDE (79-96),10 COOPS - ELEVATOR APARTMENTS             ,2,1493,72, ,D4,"1001 FIFTH AVENUE, S.R.5", ,10028,0,0,0, -  , -  ,1978,2,D4,20000,2017-01-27 00:00:00,40.776629,-73.953914,"(40.776629, -73.953914)"
13605,13609,1,UPPER EAST SIDE (79-96),10 COOPS - ELEVATOR APARTMENTS             ,2,1494,23, ,D4,"45 EAST 82ND STREET, 8E", ,10028,0,0,0, -  , -  ,1912,2,D4,8200000,2017-01-17 00:00:00,40.778245,-73.960379,"(40.778245, -73.960379)"
13613,13617,1,UPPER EAST SIDE (79-96),10 COOPS - ELEVATOR APARTMENTS             ,2,1494,69, ,D4,"1016 FIFTH AVENUE, 4B", ,10028,0,0,0, -  , -  ,1929,2,D4,3400000,2017-02-14 00:00:00,40.776629,-73.953914,"(40.776629, -73.953914)"
13619,13623,1,UPPER EAST SIDE (79-96),10 COOPS - ELEVATOR APARTMENTS             ,2,1495,59, ,D4,"20 EAST 84TH STREET, 2-A", ,10028,0,0,0, -  , -  ,1910,2,D4,1165000,2017-02-17 00:00:00,40.779616,-73.960211,"(40.779616, -73.960211)"
13632,13636,1,UPPER EAST SIDE (79-96),10 COOPS - ELEVATOR APARTMENTS             ,2,1497,34, ,D4,"1020 PARK AVENUE, 2C", ,10028,0,0,0, -  , -  ,1962,2,D4,2350000,2017-02-06 00:00:00,40.7799,-73.957718,"(40.7799, -73.957718)"
13633,13637,1,UPPER EAST SIDE (79-96),10 COOPS - ELEVATOR APARTMENTS             ,2,1497,34, ,D4,"1020 PARK AVENUE, 2/3B", ,10028,0,0,0, -  , -  ,1962,2,D4, -  ,2017-02-06 00:00:00,40.7799,-73.957718,"(40.7799, -73.957718)"
13635,13639,1,UPPER EAST SIDE (79-96),10 COOPS - ELEVATOR APARTMENTS             ,2,1497,41, ,D4,"1036 PARK AVENUE, 5B", ,10028,0,0,0, -  , -  ,1957,2,D4,400000,2017-02-01 00:00:00,40.780066,-73.957596,"(40.780066, -73.957596)"
13636,13640,1,UPPER EAST SIDE (79-96),10 COOPS - ELEVATOR APARTMENTS             ,2,1497,41, ,D4,"1036 PARK AVENUE, 11E", ,10028,0,0,0, -  , -  ,1957,2,D4,525000,2017-02-03 00:00:00,40.780066,-73.957596,"(40.780066, -73.957596)"
13637,13641,1,UPPER EAST SIDE (79-96),10 COOPS - ELEVATOR APARTMENTS             ,2,1497,41, ,D4,"1036 PARK AVENUE, 16E", ,10028,0,0,0, -  , -  ,1957,2,D4,1475000,2017-02-09 00:00:00,40.780066,-73.957596,"(40.780066, -73.957596)"
13639,13643,1,UPPER EAST SIDE (79-96),10 COOPS - ELEVATOR APARTMENTS             ,2,1497,44, ,D4,"68 EAST 86TH STREET, 6A", ,10028,0,0,0, -  , -  ,1912,2,D4,1050000,2017-01-05 00:00:00,40.780327,-73.95796,"(40.780327, -73.95796)"
13640,13644,1,UPPER EAST SIDE (79-96),10 COOPS - ELEVATOR APARTMENTS             ,2,1498,1, ,D4,"1050 FIFTH AVENUE, 1415A", ,10028,0,0,0, -  , -  ,1960,2,D4,2500000,2017-01-04 00:00:00,40.776629,-73.953914,"(40.776629, -73.953914)"
13641,13645,1,UPPER EAST SIDE (79-96),10 COOPS - ELEVATOR APARTMENTS             ,2,1498,1, ,D4,"1050 FIFTH AVENUE, 6D", ,10028,0,0,0, -  , -  ,1960,2,D4,3670000,2017-01-09 00:00:00,40.776629,-73.953914,"(40.776629, -73.953914)"
13642,13646,1,UPPER EAST SIDE (79-96),10 COOPS - ELEVATOR APARTMENTS             ,2,1498,1, ,D4,"1050 FIFTH AVENUE, 12D", ,10028,0,0,0, -  , -  ,1960,2,D4,3383000,2017-02-16 00:00:00,40.776629,-73.953914,"(40.776629, -73.953914)"
13645,13649,1,UPPER EAST SIDE (79-96),10 COOPS - ELEVATOR APARTMENTS             ,2,1498,20, ,D4,"49 EAST 86TH STREET, 17A", ,10028,0,0,0, -  , -  ,1930,2,D4,1800000,2017-01-12 00:00:00,40.780892,-73.958492,"(40.780892, -73.958492)"
13649,13653,1,UPPER EAST SIDE (79-96),10 COOPS - ELEVATOR APARTMENTS             ,2,1498,33, ,D4,"1040 PARK AVENUE, 14H", ,10028,0,0,0, -  , -  ,1925,2,D4,850000,2017-01-03 00:00:00,40.780532,-73.957254,"(40.780532, -73.957254)"
13682,13686,1,UPPER EAST SIDE (79-96),10 COOPS - ELEVATOR APARTMENTS             ,2,1500,40, ,D4,"1088 PARK AVENUE, 7B", ,10128,0,0,0, -  , -  ,1925,2,D4,3230500,2017-01-12 00:00:00,40.781956,-73.956206,"(40.781956, -73.956206)"
13689,13693,1,UPPER EAST SIDE (79-96),10 COOPS - ELEVATOR APARTMENTS             ,2,1500,45, ,D4,"50 EAST 89TH STREET, 11G", ,10128,0,0,0, -  , -  ,1973,2,D4,495000,2017-01-12 00:00:00,40.782387,-73.956822,"(40.782387, -73.956822)"
13690,13694,1,UPPER EAST SIDE (79-96),10 COOPS - ELEVATOR APARTMENTS             ,2,1500,45, ,D4,"50 EAST 89TH STREET, 31F", ,10128,0,0,0, -  , -  ,1973,2,D4,1900000,2017-01-31 00:00:00,40.782387,-73.956822,"(40.782387, -73.956822)"
13700,13704,1,UPPER EAST SIDE (79-96),10 COOPS - ELEVATOR APARTMENTS             ,2,1501,40, ,D4,"1112 PARK AVENUE, 3C", ,10128,0,0,0, -  , -  ,1927,2,D4,2800000,2017-01-25 00:00:00,40.78284,-73.955838,"(40.78284, -73.955838)"
13701,13705,1,UPPER EAST SIDE (79-96),10 COOPS - ELEVATOR APARTMENTS             ,2,1501,40, ,D4,"1112 PARK AVENUE, 4A", ,10128,0,0,0, -  , -  ,1927,2,D4,5150000,2017-02-08 00:00:00,40.78284,-73.955838,"(40.78284, -73.955838)"
13712,13716,1,UPPER EAST SIDE (79-96),10 COOPS - ELEVATOR APARTMENTS             ,2,1503,14, ,D4,"15 EAST 91ST STREET, 1/2C", ,10128,0,0,0, -  , -  ,1948,2,D4,3150000,2017-01-31 00:00:00,40.784221,-73.956633,"(40.784221, -73.956633)"
13718,13722,1,UPPER EAST SIDE (79-96),10 COOPS - ELEVATOR APARTMENTS             ,2,1504,31, ,D4,"1160 PARK AVENUE, 15D", ,10128,0,0,0, -  , -  ,1926,2,D4,6250000,2017-02-16 00:00:00,40.784253,-73.954797,"(40.784253, -73.954797)"
13719,13723,1,UPPER EAST SIDE (79-96),10 COOPS - ELEVATOR APARTMENTS             ,2,1504,31, ,D4,"1160 PARK AVENUE, 3D", ,10128,0,0,0, -  , -  ,1926,2,D4,5355000,2017-02-16 00:00:00,40.784253,-73.954797,"(40.784253, -73.954797)"
13723,13727,1,UPPER EAST SIDE (79-96),10 COOPS - ELEVATOR APARTMENTS             ,2,1504,69, ,D4,"1115 FIFTH AVENUE, 1B", ,10128,0,0,0, -  , -  ,1926,2,D4, -  ,2017-01-05 00:00:00,40.780989,-73.95158,"(40.780989, -73.95158)"
13724,13728,1,UPPER EAST SIDE (79-96),10 COOPS - ELEVATOR APARTMENTS             ,2,1504,69, ,D4,"1115 FIFTH AVENUE, 5A", ,10128,0,0,0, -  , -  ,1926,2,D4,5200000,2017-01-10 00:00:00,40.780989,-73.95158,"(40.780989, -73.95158)"
13743,13747,1,UPPER EAST SIDE (79-96),10 COOPS - ELEVATOR APARTMENTS             ,2,1506,69, ,D4,"1136 FIFTH AVENUE, 12A", ,10128,0,0,0, -  , -  ,1925,2,D4,6500000,2017-01-10 00:00:00,40.780989,-73.95158,"(40.780989, -73.95158)"
13748,13752,1,UPPER EAST SIDE (79-96),10 COOPS - ELEVATOR APARTMENTS             ,2,1507,21, ,D4,"1361 MADISON AVENUE, 6D", ,10128,0,0,0, -  , -  ,1902,2,D4,370000,2017-02-27 00:00:00,40.786715,-73.954361,"(40.786715, -73.954361)"
13764,13768,1,UPPER EAST SIDE (79-96),10 COOPS - ELEVATOR APARTMENTS             ,2,1507,56, ,D4,"16 EAST 96TH STREET, 4E", ,10128,0,0,0, -  , -  ,1930,2,D4,1891500,2017-02-07 00:00:00,40.78725,-73.954604,"(40.78725, -73.954604)"
13770,13774,1,UPPER EAST SIDE (79-96),10 COOPS - ELEVATOR APARTMENTS             ,2,1508,27, ,D4,"175 EAST 79TH STREET, 15C", ,10075,0,0,0, -  , -  ,1928,2,D4,995000,2017-01-18 00:00:00,40.774743,-73.957984,"(40.774743, -73.957984)"
13771,13775,1,UPPER EAST SIDE (79-96),10 COOPS - ELEVATOR APARTMENTS             ,2,1508,27, ,D4,"175 EAST 79TH STREET, 14B", ,10075,0,0,0, -  , -  ,1928,2,D4, -  ,2017-02-10 00:00:00,40.774743,-73.957984,"(40.774743, -73.957984)"
13787,13791,1,UPPER EAST SIDE (79-96),10 COOPS - ELEVATOR APARTMENTS             ,2,1509,1, ,D4,"925 PARK AVENUE, 3/4C", ,10028,0,0,0, -  , -  ,1908,2,D4,5850000,2017-02-03 00:00:00,40.776416,-73.959642,"(40.776416, -73.959642)"
13789,13793,1,UPPER EAST SIDE (79-96),10 COOPS - ELEVATOR APARTMENTS             ,2,1509,51, ,D4,"140 EAST 81ST STREET, 8F", ,10028,0,0,0, -  , -  ,1928,2,D4,785000,2017-02-01 00:00:00,40.776069,-73.957704,"(40.776069, -73.957704)"
13808,13812,1,UPPER EAST SIDE (79-96),10 COOPS - ELEVATOR APARTMENTS             ,2,1510,72, ,D4,"955 PARK AVENUE, 1A", ,10028,0,0,0, -  , -  ,1915,2,D4,450000,2017-02-07 00:00:00,40.777268,-73.959018,"(40.777268, -73.959018)"
13812,13816,1,UPPER EAST SIDE (79-96),10 COOPS - ELEVATOR APARTMENTS             ,2,1511,1, ,D4,"969 PARK AVENUE, 11C", ,10028,0,0,0, -  , -  ,1911,2,D4, -  ,2017-01-10 00:00:00,40.777848,-73.958598,"(40.777848, -73.958598)"
13816,13820,1,UPPER EAST SIDE (79-96),10 COOPS - ELEVATOR APARTMENTS             ,2,1511,62, ,D4,"120 EAST 83RD STREET, 3A", ,10028,0,0,0, -  , -  ,1925,2,D4,399000,2017-02-17 00:00:00,40.777708,-73.957632,"(40.777708, -73.957632)"
13819,13823,1,UPPER EAST SIDE (79-96),10 COOPS - ELEVATOR APARTMENTS             ,2,1511,69, ,D4,"975 PARK AVENUE, SR#5", ,10028,0,0,0, -  , -  ,1929,2,D4,351000,2017-01-04 00:00:00,40.77798,-73.958501,"(40.77798, -73.958501)"
13829,13833,1,UPPER EAST SIDE (79-96),10 COOPS - ELEVATOR APARTMENTS             ,2,1512,52, ,D4,"144 EAST 84TH STREET, 8G", ,10028,0,0,0, -  , -  ,1962,2,D4,680000,2017-01-24 00:00:00,40.777986,-73.956352,"(40.777986, -73.956352)"
13832,13836,1,UPPER EAST SIDE (79-96),10 COOPS - ELEVATOR APARTMENTS             ,2,1512,59, ,D4,"124 EAST 84TH STREET, 2AB", ,10028,0,0,0, -  , -  ,1924,2,D4,3700000,2017-02-16 00:00:00,40.778288,-73.957059,"(40.778288, -73.957059)"
13847,13851,1,UPPER EAST SIDE (79-96),10 COOPS - ELEVATOR APARTMENTS             ,2,1513,5, ,D4,"103 EAST 84TH STREET, 3C", ,10028,0,0,0, -  , -  ,1917,2,D4,1800000,2017-01-10 00:00:00,40.778726,-73.957581,"(40.778726, -73.957581)"
13855,13859,1,UPPER EAST SIDE (79-96),10 COOPS - ELEVATOR APARTMENTS             ,2,1513,20, ,D4,"145 EAST 84TH STREET, 12F", ,10028,0,0,0, -  , -  ,1963,2,D4,1724000,2017-02-22 00:00:00,40.778154,-73.956226,"(40.778154, -73.956226)"
13875,13879,1,UPPER EAST SIDE (79-96),10 COOPS - ELEVATOR APARTMENTS             ,2,1516,1, ,D4,"1065 PARK AVENUE, 19A", ,10128,0,0,0, -  , -  ,1973,2,D4,1975000,2017-01-09 00:00:00,40.780908,-73.95632,"(40.780908, -73.95632)"
13876,13880,1,UPPER EAST SIDE (79-96),10 COOPS - ELEVATOR APARTMENTS             ,2,1516,1, ,D4,"1065 PARK AVENUE, 15B", ,10128,0,0,0, -  , -  ,1973,2,D4, -  ,2017-01-18 00:00:00,40.780908,-73.95632,"(40.780908, -73.95632)"
13877,13881,1,UPPER EAST SIDE (79-96),10 COOPS - ELEVATOR APARTMENTS             ,2,1516,1, ,D4,"1065 PARK AVENUE, 27A/B", ,10128,0,0,0, -  , -  ,1973,2,D4,5300000,2017-02-03 00:00:00,40.780908,-73.95632,"(40.780908, -73.95632)"
13887,13891,1,UPPER EAST SIDE (79-96),10 COOPS - ELEVATOR APARTMENTS             ,2,1516,69, ,D4,"1075 PARK AVENUE, 7B", ,10128,0,0,0, -  , -  ,1922,2,D4,2995000,2017-01-27 00:00:00,40.781201,-73.956162,"(40.781201, -73.956162)"
13888,13892,1,UPPER EAST SIDE (79-96),10 COOPS - ELEVATOR APARTMENTS             ,2,1517,27, ,D4,"161 EAST 88TH STREET, 4D", ,10128,0,0,0, -  , -  ,1937,2,D4,729000,2017-02-27 00:00:00,40.780549,-73.953774,"(40.780549, -73.953774)"
13889,13893,1,UPPER EAST SIDE (79-96),10 COOPS - ELEVATOR APARTMENTS             ,2,1517,69, ,D4,"1095 PARK AVENUE, 16-B", ,10128,0,0,0, -  , -  ,1930,2,D4,3725000,2017-01-18 00:00:00,40.781833,-73.955689,"(40.781833, -73.955689)"
13890,13894,1,UPPER EAST SIDE (79-96),10 COOPS - ELEVATOR APARTMENTS             ,2,1517,69, ,D4,"1095 PARK AVENUE, 1C", ,10128,0,0,0, -  , -  ,1930,2,D4,901469,2017-02-16 00:00:00,40.781833,-73.955689,"(40.781833, -73.955689)"
13891,13895,1,UPPER EAST SIDE (79-96),10 COOPS - ELEVATOR APARTMENTS             ,2,1517,69, ,D4,"1095 PARK AVENUE, 1D", ,10128,0,0,0, -  , -  ,1930,2,D4,905000,2017-02-16 00:00:00,40.781833,-73.955689,"(40.781833, -73.955689)"
13903,13907,1,UPPER EAST SIDE (79-96),10 COOPS - ELEVATOR APARTMENTS             ,2,1519,8, ,D4,"115 EAST 90TH STREET, 4AB", ,10128,0,0,0, -  , -  ,1923,2,D4,2729025,2017-02-07 00:00:00,40.782443,-73.954386,"(40.782443, -73.954386)"
13910,13914,1,UPPER EAST SIDE (79-96),10 COOPS - ELEVATOR APARTMENTS             ,2,1519,46, ,D4,"160 EAST 91ST STREET, 3-I", ,10128,0,0,0, -  , -  ,1941,2,D4,460000,2017-02-21 00:00:00,40.782361,-73.952739,"(40.782361, -73.952739)"
13928,13932,1,UPPER EAST SIDE (79-96),10 COOPS - ELEVATOR APARTMENTS             ,2,1521,1, ,D4,"1165 PARK AVENUE, 7C", ,10128,0,0,0, -  , -  ,1925,2,D4,4490000,2017-01-05 00:00:00,40.784084,-73.954051,"(40.784084, -73.954051)"
13937,13941,1,UPPER EAST SIDE (79-96),10 COOPS - ELEVATOR APARTMENTS             ,2,1522,1, ,D4,"1185 PARK AVENUE, 4D", ,10128,0,0,0, -  , -  ,1929,2,D4,7625000,2017-02-13 00:00:00,40.784834,-73.953497,"(40.784834, -73.953497)"
13952,13956,1,UPPER EAST SIDE (79-96),10 COOPS - ELEVATOR APARTMENTS             ,2,1522,50, ,D4,"1435 LEXINGTON AVENUE, 1B", ,10128,0,0,0, -  , -  ,1925,2,D4,250000,2017-02-02 00:00:00,40.784372,-73.95185,"(40.784372, -73.95185)"
13956,13960,1,UPPER EAST SIDE (79-96),10 COOPS - ELEVATOR APARTMENTS             ,2,1522,59, ,D4,"130 EAST 94TH STREET, 8C", ,10128,0,0,0, -  , -  ,1923,2,D4,565000,2017-01-04 00:00:00,40.784683,-73.952426,"(40.784683, -73.952426)"
13966,13970,1,UPPER EAST SIDE (79-96),10 COOPS - ELEVATOR APARTMENTS             ,2,1523,14, ,D4,"139 EAST 94TH STREET, 8C", ,10128,0,0,0, -  , -  ,1928,2,D4,1235000,2017-01-30 00:00:00,40.78475,-73.952063,"(40.78475, -73.952063)"
13973,13977,1,UPPER EAST SIDE (79-96),10 COOPS - ELEVATOR APARTMENTS             ,2,1525,1, ,D4,"201 EAST 79TH STREET, 3A", ,10075,0,0,0, -  , -  ,1963,2,D4,1747500,2017-02-13 00:00:00,40.77431,-73.956956,"(40.77431, -73.956956)"
13976,13980,1,UPPER EAST SIDE (79-96),10 COOPS - ELEVATOR APARTMENTS             ,2,1525,9, ,D4,"215 EAST 79TH STREET, 3B", ,10075,0,0,0, -  , -  ,1947,2,D4,815000,2017-02-16 00:00:00,40.774039,-73.956319,"(40.774039, -73.956319)"
13982,13986,1,UPPER EAST SIDE (79-96),10 COOPS - ELEVATOR APARTMENTS             ,2,1525,13, ,D4,"225 EAST 79TH STREET, 9C/9D", ,10075,0,0,0, -  , -  ,1930,2,D4,1395000,2017-02-24 00:00:00,40.773914,-73.956016,"(40.773914, -73.956016)"
13985,13989,1,UPPER EAST SIDE (79-96),10 COOPS - ELEVATOR APARTMENTS             ,2,1525,15, ,D4,"229 EAST 79TH STREET, 11D", ,10075,0,0,0, -  , -  ,1930,2,D4,1355000,2017-02-28 00:00:00,40.773814,-73.955779,"(40.773814, -73.955779)"
13990,13994,1,UPPER EAST SIDE (79-96),10 COOPS - ELEVATOR APARTMENTS             ,2,1525,21, ,D4,"239 EAST 79TH STREET, 16C", ,10075,0,0,0, -  , -  ,1957,2,D4,1750000,2017-02-09 00:00:00,40.773691,-73.955482,"(40.773691, -73.955482)"
14004,14008,1,UPPER EAST SIDE (79-96),10 COOPS - ELEVATOR APARTMENTS             ,2,1529,1, ,D4,"201 EAST 83RD STREET, 14F", ,10028,0,0,0, -  , -  ,1964,2,D4,658350,2017-01-27 00:00:00,40.776846,-73.955075,"(40.776846, -73.955075)"
14006,14010,1,UPPER EAST SIDE (79-96),10 COOPS - ELEVATOR APARTMENTS             ,2,1529,45, ,D4,"200 EAST 84TH STREET, 10G", ,10028,0,0,0, -  , -  ,1961,2,D4,910000,2017-01-06 00:00:00,40.777295,-73.954707,"(40.777295, -73.954707)"
14012,14016,1,UPPER EAST SIDE (79-96),10 COOPS - ELEVATOR APARTMENTS             ,2,1532,22, ,D4,"250 EAST 87TH STREET, 19J", ,10028,0,0,0, -  , -  ,1970,2,D4,665000,2017-02-14 00:00:00,40.778543,-73.951672,"(40.778543, -73.951672)"
14013,14017,1,UPPER EAST SIDE (79-96),10 COOPS - ELEVATOR APARTMENTS             ,2,1532,22, ,D4,"250 EAST 87TH STREET, 29D", ,10028,0,0,0, -  , -  ,1970,2,D4,655000,2017-02-22 00:00:00,40.778543,-73.951672,"(40.778543, -73.951672)"
14031,14035,1,UPPER EAST SIDE (79-96),10 COOPS - ELEVATOR APARTMENTS             ,2,1533,122, ,D4,"235 EAST 87TH STREET, 10L", ,10128,0,0,0, -  , -  ,1962,2,D4,957734,2017-01-20 00:00:00,40.778963,-73.9519,"(40.778963, -73.9519)"
14038,14042,1,UPPER EAST SIDE (79-96),10 COOPS - ELEVATOR APARTMENTS             ,2,1535,3, ,D4,"200 EAST 90TH STREET, 11D", ,10128,0,0,0, -  , -  ,1980,2,D4,730000,2017-01-24 00:00:00,40.781163,-73.951865,"(40.781163, -73.951865)"
14039,14043,1,UPPER EAST SIDE (79-96),10 COOPS - ELEVATOR APARTMENTS             ,2,1535,3, ,D4,"200 EAST 90TH STREET, 7A", ,10128,0,0,0, -  , -  ,1980,2,D4,805000,2017-02-09 00:00:00,40.781163,-73.951865,"(40.781163, -73.951865)"
14044,14048,1,UPPER EAST SIDE (79-96),10 COOPS - ELEVATOR APARTMENTS             ,2,1542,14, ,D4,"325 EAST 79TH STREET, 4C", ,10075,0,0,0, -  , -  ,1929,2,D4,1225000,2017-01-26 00:00:00,40.772887,-73.953576,"(40.772887, -73.953576)"
14045,14049,1,UPPER EAST SIDE (79-96),10 COOPS - ELEVATOR APARTMENTS             ,2,1542,14, ,D4,"325 EAST 79TH STREET, 14D", ,10075,0,0,0, -  , -  ,1929,2,D4,822500,2017-02-22 00:00:00,40.772887,-73.953576,"(40.772887, -73.953576)"
14052,14056,1,UPPER EAST SIDE (79-96),10 COOPS - ELEVATOR APARTMENTS             ,2,1542,19, ,D4,"340 EAST 80TH STREET, 19L", ,10075,0,0,0, -  , -  ,1961,2,D4,501000,2017-01-04 00:00:00,40.773046,-73.952592,"(40.773046, -73.952592)"
14053,14057,1,UPPER EAST SIDE (79-96),10 COOPS - ELEVATOR APARTMENTS             ,2,1542,19, ,D4,"333 EAST 79TH STREET, 14O", ,10075,0,0,0, -  , -  ,1961,2,D4,1300000,2017-01-31 00:00:00,40.772753,-73.953206,"(40.772753, -73.953206)"
14054,14058,1,UPPER EAST SIDE (79-96),10 COOPS - ELEVATOR APARTMENTS             ,2,1542,19, ,D4,"340 EAST 80TH STREET, 1D", ,10075,0,0,0, -  , -  ,1961,2,D4,970000,2017-02-15 00:00:00,40.773046,-73.952592,"(40.773046, -73.952592)"
14080,14084,1,UPPER EAST SIDE (79-96),10 COOPS - ELEVATOR APARTMENTS             ,2,1543,14, ,D4,"325 EAST 80TH STREET, 6B", ,10075,0,0,0, -  , -  ,1940,2,D4,605000,2017-01-25 00:00:00,40.773604,-73.953106,"(40.773604, -73.953106)"
14091,14095,1,UPPER EAST SIDE (79-96),10 COOPS - ELEVATOR APARTMENTS             ,2,1544,19, ,D4,"345 EAST 81ST STREET, 14E", ,10028,0,0,0, -  , -  ,1963,2,D4,959000,2017-01-12 00:00:00,40.773874,-73.951978,"(40.773874, -73.951978)"
14120,14124,1,UPPER EAST SIDE (79-96),10 COOPS - ELEVATOR APARTMENTS             ,2,1550,7, ,D4,"309 EAST 87TH STREET, 6J", ,10128,0,0,0, -  , -  ,1959,2,D4,590000,2017-02-10 00:00:00,40.778138,-73.949969,"(40.778138, -73.949969)"
14124,14128,1,UPPER EAST SIDE (79-96),10 COOPS - ELEVATOR APARTMENTS             ,2,1551,5, ,D4,"305 EAST 88TH STREET, 2FG", ,10128,0,0,0, -  , -  ,1929,2,D4,1185000,2017-01-18 00:00:00,40.779014,-73.95014,"(40.779014, -73.95014)"
14129,14133,1,UPPER EAST SIDE (79-96),10 COOPS - ELEVATOR APARTMENTS             ,2,1552,13, ,D4,"321 EAST 89TH STREET, 1D", ,10128,0,0,0, -  , -  ,1950,2,D4,430000,2017-02-01 00:00:00,40.779393,-73.949093,"(40.779393, -73.949093)"
14135,14139,1,UPPER EAST SIDE (79-96),10 COOPS - ELEVATOR APARTMENTS             ,2,1554,23, ,D4,"333 EAST 91ST STREET, 11A", ,10128,0,0,0, -  , -  ,2007,2,D4,2225000,2017-01-06 00:00:00,40.780277,-73.947284,"(40.780277, -73.947284)"
14149,14153,1,UPPER EAST SIDE (79-96),10 COOPS - ELEVATOR APARTMENTS             ,2,1555,23, ,D4,"340 EAST 93RD STREET, 14F", ,10128,0,0,0, -  , -  ,1980,2,D4,619000,2017-01-31 00:00:00,40.781309,-73.946508,"(40.781309, -73.946508)"
14150,14154,1,UPPER EAST SIDE (79-96),10 COOPS - ELEVATOR APARTMENTS             ,2,1555,23, ,D4,"340 EAST 93RD STREET, 22B", ,10128,0,0,0, -  , -  ,1980,2,D4, -  ,2017-02-09 00:00:00,40.781309,-73.946508,"(40.781309, -73.946508)"
14155,14159,1,UPPER EAST SIDE (79-96),10 COOPS - ELEVATOR APARTMENTS             ,2,1556,23, ,D4,"345 EAST 93RD STREET, 10E", ,10128,0,0,0, -  , -  ,1974,2,D4,518000,2017-01-24 00:00:00,40.781566,-73.946314,"(40.781566, -73.946314)"
14156,14160,1,UPPER EAST SIDE (79-96),10 COOPS - ELEVATOR APARTMENTS             ,2,1556,23, ,D4,"345 EAST 93RD STREET, 5H", ,10128,0,0,0, -  , -  ,1974,2,D4,575000,2017-02-15 00:00:00,40.781566,-73.946314,"(40.781566, -73.946314)"
14157,14161,1,UPPER EAST SIDE (79-96),10 COOPS - ELEVATOR APARTMENTS             ,2,1556,23, ,D4,"345 EAST 93RD STREET, 19G", ,10128,0,0,0, -  , -  ,1974,2,D4,650000,2017-02-23 00:00:00,40.781566,-73.946314,"(40.781566, -73.946314)"
14158,14162,1,UPPER EAST SIDE (79-96),10 COOPS - ELEVATOR APARTMENTS             ,2,1556,23, ,D4,"345 EAST 93RD STREET, 19J", ,10128,0,0,0, -  , -  ,1974,2,D4,586000,2017-02-06 00:00:00,40.781566,-73.946314,"(40.781566, -73.946314)"
14179,14183,1,UPPER EAST SIDE (79-96),10 COOPS - ELEVATOR APARTMENTS             ,2,1560,5, ,D4,"415 EAST 80TH STREET, 2A", ,10075,0,0,0, -  , -  ,1959,2,D4,450000,2017-01-09 00:00:00,40.77283,-73.951473,"(40.77283, -73.951473)"
14210,14214,1,UPPER EAST SIDE (79-96),10 COOPS - ELEVATOR APARTMENTS             ,2,1565,28, ,D4,"446 EAST 86TH STREET, 10A", ,10028,0,0,0, -  , -  ,1959,2,D4,465000,2017-02-08 00:00:00,40.775915,-73.9475,"(40.775915, -73.9475)"
14215,14219,1,UPPER EAST SIDE (79-96),10 COOPS - ELEVATOR APARTMENTS             ,2,1565,29, ,D4,"436 EAST 86TH STREET, 18J", ,10028,0,0,0, -  , -  ,1973,2,D4, -  ,2017-01-20 00:00:00,40.776396,-73.948777,"(40.776396, -73.948777)"
14216,14220,1,UPPER EAST SIDE (79-96),10 COOPS - ELEVATOR APARTMENTS             ,2,1565,29, ,D4,"444 EAST 86TH STREET, 18G", ,10028,0,0,0, -  , -  ,1973,2,D4,1520000,2017-01-31 00:00:00,40.776014,-73.947878,"(40.776014, -73.947878)"
14217,14221,1,UPPER EAST SIDE (79-96),10 COOPS - ELEVATOR APARTMENTS             ,2,1565,29, ,D4,"444 EAST 86TH STREET, 30J", ,10028,0,0,0, -  , -  ,1973,2,D4,725000,2017-02-07 00:00:00,40.776014,-73.947878,"(40.776014, -73.947878)"
14218,14222,1,UPPER EAST SIDE (79-96),10 COOPS - ELEVATOR APARTMENTS             ,2,1565,29, ,D4,"436 EAST 86TH   STREET, 34D", ,10028,0,0,0, -  , -  ,1973,2,D4,725000,2017-02-24 00:00:00,40.776396,-73.948777,"(40.776396, -73.948777)"
14228,14232,1,UPPER EAST SIDE (79-96),10 COOPS - ELEVATOR APARTMENTS             ,2,1566,10, ,D4,"425 EAST 86TH STREET, 16BC", ,10028,0,0,0, -  , -  ,1929,2,D4,2381250,2017-01-19 00:00:00,40.776573,-73.948234,"(40.776573, -73.948234)"
14232,14236,1,UPPER EAST SIDE (79-96),10 COOPS - ELEVATOR APARTMENTS             ,2,1566,14, ,D4,"435 EAST 86TH STREET, GC", ,10028,0,0,0, -  , -  ,1910,2,D4,775000,2017-01-05 00:00:00,40.776466,-73.94798,"(40.776466, -73.94798)"
